"","metric","site_number","site_name","reporting_area","latitude","longitude","local_i","e_i","var_i","z_i","p_value","lag_x","quad","sig","p_adj_bh","sig_bh"
"1","p450",77,"Aiston Preserve",7,48.6793778,-122.6300583,0.107459219289716,-0.0027332041572364,0.00575792181323667,1.45217465570668,0.146453047846106,0.543990081666667,"LL",FALSE,0.338672673144121,FALSE
"2","p450",13,"Arroyo Beach",11,47.50161,-122.38593,-0.0154144070167234,0.000297737555789626,7.4424960857471e-05,-1.82127765400677,0.0685646614711236,1.5299831905,"LH",FALSE,0.278243296954335,FALSE
"3","p450",41,"Blair Waterway",11,47.27568,-122.4173,0.0444150698811178,0.000861027599508593,0.00228338950676824,0.911461791891796,0.362052108493501,1.26971251066667,"HH",FALSE,0.594256704457027,FALSE
"4","p450",42,"Blair Waterway Two",11,47.2632444,-122.385731,-0.00520661165060969,-0.000186139175227107,2.63080994249661e-05,-0.978813280390568,0.327672246605358,1.2856592525,"LH",FALSE,0.551085142018101,FALSE
"5","p450",23,"Brackenwood Lane",10,47.68234,-122.5064,1.04469351222009,-0.07806871645809,0.439009056116123,1.69453699330076,0.0901632882873922,0.509397230333333,"LL",FALSE,0.290090579707262,FALSE
"6","p450",30,"Broad Spit",12,47.78184,-122.83474,0.365094178365772,-0.0202639352940364,0.33578909202054,0.665014654008047,0.506041120338041,0.793031545,"LL",FALSE,0.696904381185913,FALSE
"7","p450",54,"Browns Point Lighthouse",11,47.30515,-122.44441,0.0268359525434323,-0.0192496481325998,0.144974954907309,0.121037170129883,0.903661594103238,1.00454069533333,"HH",FALSE,0.916040520049858,FALSE
"8","p450",64,"Cap Sante",7,48.520971,-122.600717,0.307974700802684,-0.013079785510217,0.0439741258456851,1.53101743184763,0.125765084478758,0.535416745833333,"LL",FALSE,0.338672673144121,FALSE
"9","p450",56,"Chambers Bay Park",13,47.1905742,-122.5834897,0.123649101134814,-0.00453967234690997,0.118564907637682,0.372281888686268,0.709682981831587,1.09355849033333,"HH",FALSE,0.824252825151831,FALSE
"10","p450",75,"Cherry Point Aquatic Reserve, Conoco Phillips",7,48.8208,-122.7101,0.107991123989777,-0.00113591787956532,0.0054623897642125,1.47652580014847,0.139802794358997,0.5441081015,"LL",FALSE,0.338672673144121,FALSE
"11","p450",8,"Chimacum Creek delta",9,48.04906,-122.7724,0.531472901517356,-0.029549241960869,0.125736724476949,1.58215464967901,0.11361427035442,0.530060415,"LL",FALSE,0.323363692547195,FALSE
"12","p450",74,"Chuckanut, Clark's Point",7,48.68975,-122.50434,0.281091604556508,-0.0121742465600015,0.163078984083799,0.726210454196014,0.467709764118889,0.773048542166667,"LL",FALSE,0.682296061559696,FALSE
"13","p450",45,"Commencement Bay Skookum",11,47.29,-122.41,0.201613767496566,-0.00645385712251659,0.0865650288658686,0.707185374014441,0.479451286501408,1.19652637166667,"HH",FALSE,0.682296061559696,FALSE
"14","p450",48,"Commencement Bay, Dick Gilmur Launch",11,47.292549,-122.412175,-0.116214645546117,-0.00308478231719344,0.011572733480173,-1.05162108797257,0.292973428690293,1.31635768566667,"LH",FALSE,0.528781310319066,FALSE
"15","p450",49,"Commencement Bay, Milwaukee Waterway",11,47.2694,-122.4243,0.232352862394034,-0.0153013764779021,0.152742049371205,0.633674833138518,0.52629305245007,1.16684500766667,"HH",FALSE,0.708103379660094,FALSE
"16","p450",21,"Des Moines Marina",11,47.40301418,-122.3305538,0.929065540698963,3.71486156562271e-05,0.236916353253292,1.90867272353085,0.0563043239868652,1.568189927,"HH",FALSE,0.278243296954335,FALSE
"17","p450",12,"Discovery Bay",6,48.064957,-122.857524,0.196756604436539,0.0018136284891227,0.0130099473378011,1.70910924070037,0.0874307162046356,0.456174634166666,"LL",FALSE,0.290090579707262,FALSE
"18","p450",44,"Donkey Creek Delta",11,47.33775,-122.59014,0.213641688757959,0.00736693569980909,0.0212631069065939,1.41459694066606,0.157186706314995,0.535510456666667,"LL",FALSE,0.342112243156165,FALSE
"19","p450",31,"Eagle Harbor Dr",10,47.61889,-122.5275,0.273842427986466,-0.0360028275289971,0.475700317874198,0.449239701101909,0.653258750820181,0.861881303,"LL",FALSE,0.805685792678223,FALSE
"20","p450",60,"Eastsound, Fishing Bay",7,48.69368,-122.90985,0.161236845040868,-0.0302105601793427,0.451118084992242,0.285039052380701,0.775614222904301,0.9091233615,"LL",FALSE,0.824252825151831,FALSE
"21","p450",69,"Edmonds Ferry",9,47.81407,-122.3825,0.309038085532761,-0.00752210098569612,0.19495240096014,0.71695516711151,0.473401760390502,1.19516629316667,"HH",FALSE,0.682296061559696,FALSE
"22","p450",68,"Edmonds Marina",9,47.8111,-122.388,0.32485430049905,-0.0400962267163287,0.304748218969185,0.661094291834304,0.50855184573026,1.15488228583333,"HH",FALSE,0.696904381185913,FALSE
"23","p450",72,"Eld Inlet",13,47.074603,-123.003527,0.574610829159466,-0.00297936752683557,0.106046193196273,1.77366776008536,0.0761181222402789,1.51920024566667,"HH",FALSE,0.278243296954335,FALSE
"24","p450",19,"Elliot Bay Myrtle Edwards",10,47.61862,-122.36108,0.038934950526166,-0.0419834001819101,0.184044445895285,0.188619098322955,0.850391363199043,0.955348325,"LL",FALSE,0.886323392629988,FALSE
"25","p450",14,"Elliott Bay, Harbor Island, Pier 17",10,47.58766,-122.35065,-0.754300613380514,-0.0093742375119932,0.398977680412391,-1.17934006067486,0.238262792301919,0.6197158795,"HL",FALSE,0.476525584603838,FALSE
"26","p450",66,"Everett Harbor",8.2,47.9726,-122.22977,0.484131119693093,0.0116155113107288,0.0603059273243518,1.92413774445507,0.0543373200736209,1.58997653383333,"HH",FALSE,0.278243296954335,FALSE
"27","p450",63,"Fidalgo Bay Aq Reserve, Weaverling Spit",7,48.482448,-122.583879,0.0741253359323411,0.000171792971356704,0.0555468661594961,0.313782850533697,0.753685970330847,0.8886476055,"LL",FALSE,0.824252825151831,FALSE
"28","p450",59,"Filucy Bay",13,47.19483,-122.748665,0.93244093482172,-0.0383044296386139,0.592050319650217,1.26161259321208,0.207088222467083,1.35976383116667,"HH",FALSE,0.425681346182338,FALSE
"29","p450",61,"Friday Harbor",7,48.5069444,-123.0194444,-0.287727817818867,0.002251563992801,0.0448233438551646,-1.36966700439059,0.170790873062977,0.566596672166666,"HL",FALSE,0.361100703047437,FALSE
"30","p450",58,"Gig Harbor Boat Launch",11,47.33785,-122.58277,0.205815393525974,0.000378331022619862,0.018365709279018,1.51591532655517,0.129540764306723,0.533726396,"LL",FALSE,0.338672673144121,FALSE
"31","p450",29,"Hood Canal Holly",12,47.5706,-122.9717,1.07815879315167,-0.0269149377230354,1.06750282548535,1.06956390614485,0.284815649019927,0.673281762,"LL",FALSE,0.528781310319066,FALSE
"32","p450",2,"Jamestown",6,48.024789,-122.998135,0.35324586328565,-0.0103920613102075,0.0501005770054986,1.62460507892524,0.104246734249721,0.4875351705,"LL",FALSE,0.321427430603305,FALSE
"33","p450",36,"Kingston Marina",10,47.794695,-122.499858,-0.0288036731264631,-0.00421351794683759,0.0265751873358503,-0.150842284824643,0.880100129407328,0.928871672666666,"HL",FALSE,0.904547355224198,FALSE
"34","p450",25,"Kitsap St Boat Launch",10,47.54167,-122.64034,-0.187951884611108,-0.0270706408340701,0.231211482551575,-0.334580569394669,0.737941504324863,1.097082986,"LH",FALSE,0.824252825151831,FALSE
"35","p450",52,"Kopachuck State Park",13,47.30973,-122.68868,0.328695677359335,-0.0160265341303882,0.114309297559139,1.01959685975342,0.307919694922852,1.2770638245,"HH",FALSE,0.542508174289138,FALSE
"36","p450",37,"Lions Park",10,47.5833538,-122.6414587,-0.113439964806573,-0.00235097209878238,0.0737829258327656,-0.408971545170008,0.682560543238881,0.859453982333333,"HL",FALSE,0.824252825151831,FALSE
"37","p450",76,"Locust Beach",7,48.77636877,-122.5378679,0.47786871339597,-0.0107680992582637,0.196010214784405,1.1036892950116,0.269727940900469,0.656533025333333,"LL",FALSE,0.525259674385125,FALSE
"38","p450",28,"Madrona Pont",10,47.57995505,-122.6786,-0.17440913899864,-0.00198457629014006,0.123012990451833,-0.491613324199643,0.622992722336917,0.8352380795,"HL",FALSE,0.781380702592065,FALSE
"39","p450",33,"Manchester, Stormwater Outfall",10,47.55622,-122.54281,-0.115782077833661,-0.0167740637416351,0.125290775774693,-0.27971180793313,0.779698618386867,0.8857498405,"HL",FALSE,0.824252825151831,FALSE
"40","p450",51,"Maple Hollow Park",13,47.30008,-122.74566,0.891810992924067,-0.0328169713767449,0.172622501313703,2.2254524602658,0.0260508791553243,1.6197455745,"HH",TRUE,0.275395008213428,FALSE
"41","p450",11,"Maristone Island",9,48.018127,-122.699524,0.121494696548979,0.000781459952214949,0.00449195701108566,1.80109698340384,0.0716875951328865,0.442434867166666,"LL",FALSE,0.278243296954335,FALSE
"42","p450",71,"Meyer's Point, Henderson Inlet",13,47.11795,-122.83359,-1.36654970633543,-0.0192507307594543,0.303611809581536,-2.44514517462699,0.014479384550403,1.75625148033333,"LH",TRUE,0.236107270841167,FALSE
"43","p450",20,"Miller Creek",11,47.4436,-122.360316,1.68793294610106,-0.0950901030425752,0.845736302208024,1.93882883931989,0.0525221832163649,1.53763598316667,"HH",FALSE,0.278243296954335,FALSE
"44","p450",55,"Minter Bay",13,47.3539722,-122.69175,0.231558404884053,-0.028701320389756,0.248739246580986,0.521836929047498,0.601783875058768,1.12299729383333,"HH",FALSE,0.781263276392085,FALSE
"45","p450",65,"Mukilteo",8.2,47.94968,-122.30158,0.890711163945146,-0.0290036354169206,0.274086653688552,1.75674704048359,0.0789609356221761,1.50620287666667,"HH",FALSE,0.278243296954335,FALSE
"46","p450",62,"N Avenue Park",7,48.52108,-122.61531,-0.706585712444019,-0.0239021251081298,0.116286239935942,-2.00195954859977,0.0452890822769262,0.366031,"HL",TRUE,0.278243296954335,FALSE
"47","p450",7,"North Camano",8.1,48.255358,-122.507014,-0.515223295141137,-0.0163289151196441,0.3126461663674,-0.892240757306122,0.372263900624035,0.7079332815,"HL",FALSE,0.594256704457027,FALSE
"48","p450",10,"Oak Bay County Park",9,48.02218,-122.728709,0.63539791838477,-0.0262313099873598,0.203666291687723,1.46607134229616,0.142628852011423,0.560619037666666,"LL",FALSE,0.338672673144121,FALSE
"49","p450",3,"Penn Cove Reference",8.1,48.21423,-122.718972,0.282133079127804,0.00510249730704172,0.309190362548778,0.498212637910919,0.618334175749942,0.824351930833333,"LL",FALSE,0.781380702592065,FALSE
"50","p450",50,"Penrose Point State Park",13,47.2619,-122.7376,0.852073850660958,0.0066656531448762,0.163471676504587,2.09095745546005,0.0365318779253721,1.62689903283333,"HH",TRUE,0.278243296954335,FALSE
"51","p450",43,"Point Defiance Ferry",11,47.3062,-122.5145,0.134742865462751,-0.0316567472163188,0.281265845782094,0.313757280193441,0.753705392514817,0.907081464666667,"LL",FALSE,0.824252825151831,FALSE
"52","p450",1,"Port Angeles Yacht Club",6,48.12823,-123.45715,-0.150304999917191,0.0037488471798631,0.0210782913484215,-1.06109641346559,0.288646087632475,0.670179024833333,"HL",FALSE,0.528781310319066,FALSE
"53","p450",47,"Purdy, Burley Lagoon",13,47.386977,-122.6367089,-0.085292487210582,0.00224055898802034,0.0239300261088133,-0.565848874242323,0.571496518894618,1.15154000466667,"LH",FALSE,0.755191828539317,FALSE
"54","p450",57,"Purdy, Dexters",13,47.38566,-122.627255,0.0244162415452098,0.00263393785125683,0.00557863202128617,0.291635206383542,0.770565554190821,1.08155577716667,"HH",FALSE,0.824252825151831,FALSE
"55","p450",53,"Raft Island Park",13,47.32598,-122.66724,-0.0704406835781579,-0.00246998674944384,0.00742101255848814,-0.789023864704758,0.43009805848829,1.236902794,"LH",FALSE,0.663067840169447,FALSE
"56","p450",39,"Reach Island",13,47.346537,-122.82236,0.250834585719295,-0.0044082811128594,0.0318739490161524,1.42966958181835,0.152811874504783,1.4200926265,"HH",FALSE,0.342112243156165,FALSE
"57","p450",32,"Rich Passage",10,47.578117,-122.524833,0.0456023206712709,-0.00190769966825194,0.00289739548839374,0.882635369106501,0.377433312290274,0.720422116166667,"LL",FALSE,0.594256704457027,FALSE
"58","p450",27,"Rocky Point",10,47.60255,-122.66992,-0.500240191113207,-0.00979119365797643,0.0697418140202245,-1.85715106374538,0.0632896649837048,0.446744523833333,"HL",FALSE,0.278243296954335,FALSE
"59","p450",16,"Salmon Bay, Commodore Park",10,47.6663,-122.4018,0.0021106369171613,-3.19325890397814e-05,1.29498589368093e-06,1.88279224469121,0.0597285284736974,0.432401539833333,"LL",FALSE,0.278243296954335,FALSE
"60","p450",40,"Salmon Beach",11,47.29464,-122.53053,0.0352687784609505,-0.0209586470240636,0.370329079385456,0.092396238437085,0.926383227938273,0.966633541666667,"LL",FALSE,0.926383227938273,FALSE
"61","p450",17,"Seattle Aquarium, Pier 59",10,47.607,-122.342,0.0794006556151561,-0.00848588580602964,0.0707203156114534,0.330483878670974,0.741034371943944,0.889844987333333,"LL",FALSE,0.824252825151831,FALSE
"62","p450",18,"Shilshole Bay",10,47.671678,-122.406663,0.504441996176723,-0.0122596506870546,0.119433508171337,1.49512241031594,0.134882498176736,0.536379570833333,"LL",FALSE,0.338672673144121,FALSE
"63","p450",35,"Silverdale, Dyes Inlet",10,47.6427936,-122.6967068,0.536250589353883,-0.0622842993498563,0.696986880660836,0.716930685054699,0.473416867199088,0.792371907166667,"LL",FALSE,0.682296061559696,FALSE
"64","p450",24,"Skiff Point",10,47.66142,-122.49884,-0.100905266572887,-0.000980361003225442,0.00190430640781706,-2.28984102588452,0.0220305339480324,0.292125688333333,"HL",TRUE,0.2717099186924,FALSE
"65","p450",15,"Smith Cove, Terminal 91",10,47.63237,-122.37869,0.0574989754481192,-0.00142299886821211,0.0276623055912945,0.354268960548522,0.723137327138978,0.87792078,"LL",FALSE,0.824252825151831,FALSE
"66","p450",9,"South of Skunk Island",9,48.02667,-122.75076,0.169591633876145,-0.00392851744242861,0.00932230473332893,1.79716631595452,0.0723092202875205,0.451128818833333,"LL",FALSE,0.278243296954335,FALSE
"67","p450",38,"Squaxin Island",13,47.17650485,-122.9046464,0.480921219157066,-0.00396440856209115,0.0658103517011723,1.8901323086137,0.0587402670505526,1.53822290183333,"HH",FALSE,0.278243296954335,FALSE
"68","p450",34,"Suquamish Stormwater Outfall",10,47.7296079,-122.5506191,0.398123537949052,-0.00776182586844661,0.0470571094960662,1.87107315369414,0.0613349420896803,0.4200591425,"LL",FALSE,0.278243296954335,FALSE
"69","p450",46,"Thea Foss Waterway",11,47.259189,-122.434689,-0.00918414466407833,0.000324848618079096,8.96509887446133e-05,-1.00428505231282,0.315241236411256,1.28686559383333,"LH",FALSE,0.542508174289138,FALSE
"70","p450",22,"Three Tree Point",11,47.44896,-122.372267,1.20845062307012,0.0176851372475316,0.167531925110626,2.90922592259256,0.00362324923453552,1.8289688085,"HH",TRUE,0.236107270841167,FALSE
"71","p450",67,"Tulalip Bay",8.2,48.0617,-122.2939,0.512904363987647,-0.00583396540183946,0.0463306234068726,2.40998459814997,0.0159531939757545,1.72389404133333,"HH",TRUE,0.236107270841167,FALSE
"72","p450",70,"Tulalip Reservation",8.2,48.0697859,-122.2997764,0.216129514354844,0.000230716495351846,0.00738270291885947,2.51271092373615,0.011980746196692,1.76229677233333,"HH",TRUE,0.236107270841167,FALSE
"73","p450",73,"West Bay Park",13,47.052362,-122.910912,0.702068283335462,-0.0316817488409172,0.211045632059051,1.59720238207849,0.110220601916115,1.45497556516667,"HH",FALSE,0.323363692547195,FALSE
"74","p450",26,"Williams Olson Park",10,47.66586,-122.56698,0.874575751035635,-0.0278483304493799,0.133484859128424,2.46998702754359,0.0135117951912168,0.2442460775,"LL",TRUE,0.236107270841167,FALSE
"75","sod",77,"Aiston Preserve",7,48.6793778,-122.6300583,-0.00508123891124774,-0.0308731910616737,0.338306941573329,0.0443433765811563,0.964630696148662,-2.17814232133333,"LL",FALSE,0.964630696148662,FALSE
"76","sod",13,"Arroyo Beach",11,47.50161,-122.38593,-0.0846988176108557,0.00438111526167791,0.00935442213152633,-0.921024958234256,0.357037396683398,-1.33037839066667,"LH",FALSE,0.678170264909469,FALSE
"77","sod",41,"Blair Waterway",11,47.27568,-122.4173,0.167666746183291,-0.00155362117786967,0.02486751546171,1.07309071027429,0.28323041865349,-1.130258137,"HH",FALSE,0.678170264909469,FALSE
"78","sod",42,"Blair Waterway Two",11,47.2632444,-122.385731,0.221478622348745,-0.00430626652653521,0.0489091802567872,1.02093873276018,0.307283466823636,-1.194760399,"HH",FALSE,0.678170264909469,FALSE
"79","sod",23,"Brackenwood Lane",10,47.68234,-122.5064,-0.0906250394633094,-0.00994810797674793,0.0235994753567207,-0.525167930019488,0.599466456755157,-1.61024323533333,"LH",FALSE,0.821491070368177,FALSE
"80","sod",30,"Broad Spit",12,47.78184,-122.83474,0.178149644552885,-0.00455664139981118,0.0348621695225233,0.978534820142026,0.327809878475615,-1.25643191166667,"HH",FALSE,0.678170264909469,FALSE
"81","sod",54,"Browns Point Lighthouse",11,47.30515,-122.44441,-0.0196389808457694,-7.76015333349512e-05,0.000254159185622295,-1.22700566937369,0.219820460071967,-0.956049416333333,"LH",FALSE,0.678170264909469,FALSE
"82","sod",64,"Cap Sante",7,48.520971,-122.600717,-0.291555445548556,-0.0235956493964286,0.184430501175486,-0.623954994662925,0.532657141925665,-2.86247534033333,"HL",FALSE,0.804420989846923,FALSE
"83","sod",56,"Chambers Bay Park",13,47.1905742,-122.5834897,0.167609076888261,-0.00139941082846255,0.142694446196282,0.447409272518734,0.654579582040749,-1.744280071,"HH",FALSE,0.864980161982418,FALSE
"84","sod",75,"Cherry Point Aquatic Reserve, Conoco Phillips",7,48.8208,-122.7101,-0.0136409940135759,-0.000991793642512404,0.000500933733495542,-0.565161973290187,0.571963598894606,-2.81040187433333,"HL",FALSE,0.81394819842694,FALSE
"85","sod",8,"Chimacum Creek delta",9,48.04906,-122.7724,-0.600079821680834,-0.00372451964110418,0.153381776970113,-1.5227135149493,0.127830395239179,-0.662330228833333,"LH",FALSE,0.678170264909469,FALSE
"86","sod",74,"Chuckanut, Clark's Point",7,48.68975,-122.50434,-0.130552262961893,-0.0118993307639423,0.111016167734745,-0.356110975812539,0.721757457829345,-2.59050185,"HL",FALSE,0.900537521824646,FALSE
"87","sod",45,"Commencement Bay Skookum",11,47.29,-122.41,0.273248686491562,-0.0131007391695842,0.0898168618884136,0.955470708919745,0.339339711102207,-1.269239177,"HH",FALSE,0.678170264909469,FALSE
"88","sod",48,"Commencement Bay, Dick Gilmur Launch",11,47.292549,-122.412175,0.317077816177035,-0.0109181517919906,0.147772540716266,0.853240840402501,0.393525759550142,-1.35053752316667,"HH",FALSE,0.678170264909469,FALSE
"89","sod",49,"Commencement Bay, Milwaukee Waterway",11,47.2694,-122.4243,-0.0844702152846467,-0.000631928123195127,0.00433052650236793,-1.27400768163483,0.202660693814376,-0.90584873,"LH",FALSE,0.678170264909469,FALSE
"90","sod",21,"Des Moines Marina",11,47.40301418,-122.3305538,0.134916593158318,-0.0120719488086587,0.0658366659815623,0.572861409361468,0.566738535591051,-1.65900041433333,"HH",FALSE,0.81394819842694,FALSE
"91","sod",12,"Discovery Bay",6,48.064957,-122.857524,0.196827386893551,0.00121833730342981,0.0460852108775363,0.911188339493508,0.362196146834257,-1.27002103133333,"HH",FALSE,0.678170264909469,FALSE
"92","sod",44,"Donkey Creek Delta",11,47.33775,-122.59014,0.325674563055776,-0.0370721903174447,0.224446763359951,0.765679219684111,0.443867194601782,-2.8735087845,"LL",FALSE,0.701047363288829,FALSE
"93","sod",31,"Eagle Harbor Dr",10,47.61889,-122.5275,-0.0631490679935815,-0.0226466158739625,0.108669341424535,-0.122864891010504,0.902214087845554,-2.37979582533333,"HL",FALSE,0.953769178579586,FALSE
"94","sod",60,"Eastsound, Fishing Bay",7,48.69368,-122.90985,0.178828143446138,-0.00541754033795044,0.0195131545737923,1.31896593841428,0.187180500020754,-3.443143504,"LL",FALSE,0.678170264909469,FALSE
"95","sod",69,"Edmonds Ferry",9,47.81407,-122.3825,-1.25971891854998,-0.116740462708456,1.50676505893156,-0.931140623026753,0.351780827514553,-1.21307629216667,"LH",FALSE,0.678170264909469,FALSE
"96","sod",68,"Edmonds Marina",9,47.8111,-122.388,-0.299573563413166,0.00990930067712484,0.164374925428905,-0.763341410313119,0.445259811818581,-2.915758111,"HL",FALSE,0.701047363288829,FALSE
"97","sod",72,"Eld Inlet",13,47.074603,-123.003527,-0.0674209240376574,-0.0038746008593055,0.117590841179854,-0.18531205774491,0.852984281110185,-2.3817431035,"HL",FALSE,0.951652503468571,FALSE
"98","sod",19,"Elliot Bay Myrtle Edwards",10,47.61862,-122.36108,0.333144028195311,-0.0180286318119229,0.120410768875041,1.01201752327092,0.311529675019698,-1.2633932355,"HH",FALSE,0.678170264909469,FALSE
"99","sod",14,"Elliott Bay, Harbor Island, Pier 17",10,47.58766,-122.35065,0.0772235399875895,-0.00119964018410382,0.00657056458951482,0.967482471049519,0.33330289991294,-1.2162532755,"HH",FALSE,0.678170264909469,FALSE
"100","sod",66,"Everett Harbor",8.2,47.9726,-122.22977,0.700586621085923,-0.0448927987154476,0.53170383822902,1.0223527295656,0.306613984850974,-3.1345030145,"LL",FALSE,0.678170264909469,FALSE
"101","sod",63,"Fidalgo Bay Aq Reserve, Weaverling Spit",7,48.482448,-122.583879,-0.466941596464606,-0.023813578181595,0.143480617817593,-1.16985649779267,0.242058722865135,-3.41803683833333,"HL",FALSE,0.678170264909469,FALSE
"102","sod",59,"Filucy Bay",13,47.19483,-122.748665,0.00894142071537339,-0.000699549080826213,0.00485156716053185,0.138413897693117,0.889913313965476,-2.05265980833333,"HL",FALSE,0.953769178579586,FALSE
"103","sod",61,"Friday Harbor",7,48.5069444,-123.0194444,0.197761664317051,-0.0116258064137644,0.235768120141177,0.431229189899576,0.666301731507745,-2.60311886516667,"LL",FALSE,0.865023300553915,FALSE
"104","sod",58,"Gig Harbor Boat Launch",11,47.33785,-122.58277,-0.635808600317852,-0.0149345803948584,0.159980579823145,-1.55227925747155,0.120595418861764,-3.7523864905,"HL",FALSE,0.678170264909469,FALSE
"105","sod",29,"Hood Canal Holly",12,47.5706,-122.9717,-2.33901343281524,-0.161816099516856,1.52787506045906,-1.76138329322516,0.07817355079203,-0.4017410445,"LH",FALSE,0.678170264909469,FALSE
"106","sod",2,"Jamestown",6,48.024789,-122.998135,0.240190782992711,0.00103598761601105,0.0803186226336973,0.843861099933253,0.398747027844712,-1.33837086433333,"HH",FALSE,0.678170264909469,FALSE
"107","sod",36,"Kingston Marina",10,47.794695,-122.499858,-0.115654423020311,-0.00821406968013065,0.0136949533341507,-0.918094000853366,0.358569655342638,-3.22630849683333,"HL",FALSE,0.678170264909469,FALSE
"108","sod",25,"Kitsap St Boat Launch",10,47.54167,-122.64034,0.28977345350781,-0.0300009893922787,0.0887569806662742,1.0733527937021,0.283112856276215,-1.18859281966667,"HH",FALSE,0.678170264909469,FALSE
"109","sod",52,"Kopachuck State Park",13,47.30973,-122.68868,-0.0777634009581233,0.000499951935294474,0.010139731260043,-0.777222254217767,0.437027654695205,-2.98240853283333,"HL",FALSE,0.701047363288829,FALSE
"110","sod",37,"Lions Park",10,47.5833538,-122.6414587,0.328047000430524,-0.00846108894766651,0.122923844201001,0.95979269904921,0.337159557537479,-1.24749211433333,"HH",FALSE,0.678170264909469,FALSE
"111","sod",76,"Locust Beach",7,48.77636877,-122.5378679,-0.173931397778565,-0.0194865089620918,0.0492973541001415,-0.695603462638815,0.48667719709394,-3.0016482765,"HL",FALSE,0.75029401218649,FALSE
"112","sod",28,"Madrona Pont",10,47.57995505,-122.6786,0.15305255375043,-0.00155710193232774,0.0171022004020571,1.1822535245497,0.237105120452042,-1.03085147216667,"HH",FALSE,0.678170264909469,FALSE
"113","sod",33,"Manchester, Stormwater Outfall",10,47.55622,-122.54281,-0.399869162503741,-0.0130757066713852,0.084179172475234,-1.33314316865391,0.182484825206617,-0.804044848666667,"LH",FALSE,0.678170264909469,FALSE
"114","sod",51,"Maple Hollow Park",13,47.30008,-122.74566,0.0658010360450291,-0.0382471056093903,0.433906880203748,0.157955975382706,0.874491489673822,-2.283129854,"LL",FALSE,0.951652503468571,FALSE
"115","sod",11,"Maristone Island",9,48.018127,-122.699524,0.104115272457915,-0.000945452229445155,0.0101058098714544,1.04509273930282,0.295980109477243,-1.15648162916667,"HH",FALSE,0.678170264909469,FALSE
"116","sod",71,"Meyer's Point, Henderson Inlet",13,47.11795,-122.83359,0.329589980821656,-0.0188831259498563,0.171392390103642,0.841731344330455,0.399938349218528,-1.394045404,"HH",FALSE,0.678170264909469,FALSE
"117","sod",20,"Miller Creek",11,47.4436,-122.360316,-0.277888823054456,-0.0015025161815087,0.0977778367015273,-0.883886112915133,0.376757694467699,-1.30627680166667,"LH",FALSE,0.678170264909469,FALSE
"118","sod",55,"Minter Bay",13,47.3539722,-122.69175,-0.349393772234209,3.55915744262543e-05,0.0253069591500172,-2.19654151280525,0.0280532072532579,-4.40254147516667,"HL",TRUE,0.678170264909469,FALSE
"119","sod",65,"Mukilteo",8.2,47.94968,-122.30158,-0.22168326502577,-0.000747198250042187,0.0159564659349062,-1.7490340465475,0.0802851344083505,-3.9949219795,"HL",FALSE,0.678170264909469,FALSE
"120","sod",62,"N Avenue Park",7,48.52108,-122.61531,-0.497166898598762,-0.0714832584054322,0.618393757328122,-0.541320421601859,0.588286746988257,-1.59388021916667,"LH",FALSE,0.821381495794924,FALSE
"121","sod",7,"North Camano",8.1,48.255358,-122.507014,-0.13668776927835,-0.0665098535984182,0.754524057748578,-0.0807911740804164,0.935608027188623,-2.03496237816667,"LL",FALSE,0.955029715536008,FALSE
"122","sod",10,"Oak Bay County Park",9,48.02218,-122.728709,0.258889112356167,-0.0203553445912237,0.111611009214447,0.835855190085299,0.403236373729954,-1.37360329516667,"HH",FALSE,0.678170264909469,FALSE
"123","sod",3,"Penn Cove Reference",8.1,48.21423,-122.718972,-0.152306624813786,0.0100044170510469,0.123278098361819,-0.462279997454741,0.643880541916867,-2.60385720166667,"HL",FALSE,0.864980161982418,FALSE
"124","sod",50,"Penrose Point State Park",13,47.2619,-122.7376,-0.122877159624582,-0.00451133332441126,0.0182025436847417,-0.877324572040008,0.380310369410768,-3.09756199066667,"HL",FALSE,0.678170264909469,FALSE
"125","sod",43,"Point Defiance Ferry",11,47.3062,-122.5145,0.0165758275266546,-0.00596667525367502,0.0519640646204689,0.0988895896657794,0.921225934633094,-2.11214629016667,"HL",FALSE,0.955029715536008,FALSE
"126","sod",1,"Port Angeles Yacht Club",6,48.12823,-123.45715,-0.0155209468374148,-0.00205430371535193,0.00665424868798337,-0.16508584508927,0.868876414127066,-1.994894399,"LL",FALSE,0.951652503468571,FALSE
"127","sod",47,"Purdy, Burley Lagoon",13,47.386977,-122.6367089,-0.45217036332923,-0.0351100768792722,0.121494546398551,-1.19652133047333,0.231493179709394,-3.50288264416667,"HL",FALSE,0.678170264909469,FALSE
"128","sod",57,"Purdy, Dexters",13,47.38566,-122.627255,-0.220934752395258,-0.139206914430647,1.2672403390223,-0.0726006511216319,0.942123908569306,-1.996753515,"LL",FALSE,0.955029715536008,FALSE
"129","sod",53,"Raft Island Park",13,47.32598,-122.66724,0.050996545416133,-0.00495548813926645,0.117634884150006,0.163135249261742,0.870411946641357,-2.33604912533333,"LL",FALSE,0.951652503468571,FALSE
"130","sod",39,"Reach Island",13,47.346537,-122.82236,0.061215877043236,-0.0104930677378521,0.0450841929865123,0.337723422439391,0.735571622240519,-2.47391041233333,"LL",FALSE,0.900537521824646,FALSE
"131","sod",32,"Rich Passage",10,47.578117,-122.524833,-0.00995800199483353,0.000307060338194137,0.000286179840568757,-0.606795109913297,0.543986893796958,-1.58985873666667,"LH",FALSE,0.805100602819497,FALSE
"132","sod",27,"Rocky Point",10,47.60255,-122.66992,0.423930346092359,-0.0172337045905884,0.0973846584426034,1.41369213873532,0.157452314530917,-0.783191869,"HH",FALSE,0.678170264909469,FALSE
"133","sod",16,"Salmon Bay, Commodore Park",10,47.6663,-122.4018,0.0849609115627151,-0.00158190890734634,0.00792661820979462,0.972046575565564,0.331027378287192,-1.228048881,"HH",FALSE,0.678170264909469,FALSE
"134","sod",40,"Salmon Beach",11,47.29464,-122.53053,-0.0483120766344637,-0.00474904556785792,0.0263616859082534,-0.268306688558355,0.78846325819271,-1.87475740666667,"LH",FALSE,0.911660642285321,FALSE
"135","sod",17,"Seattle Aquarium, Pier 59",10,47.607,-122.342,0.166775085712029,-0.00588397737669563,0.0406519676312773,0.856344660974835,0.39180716469669,-1.331595726,"HH",FALSE,0.678170264909469,FALSE
"136","sod",18,"Shilshole Bay",10,47.671678,-122.406663,0.143580013537329,-0.00119496190443711,0.0267765762980519,0.884740639785413,0.376296531488485,-1.30155982866667,"HH",FALSE,0.678170264909469,FALSE
"137","sod",35,"Silverdale, Dyes Inlet",10,47.6427936,-122.6967068,0.617347247426125,-0.0255715681567489,0.25843000425849,1.26469170068437,0.205981866189654,-1.0020114905,"HH",FALSE,0.678170264909469,FALSE
"138","sod",24,"Skiff Point",10,47.66142,-122.49884,0.0384096771790342,-0.000617151196704457,0.0193161023332073,0.280804142144393,0.778860626432864,-1.90230918316667,"HH",FALSE,0.911660642285321,FALSE
"139","sod",15,"Smith Cove, Terminal 91",10,47.63237,-122.37869,0.268875368971978,0.0114600356131057,0.0645626939081339,1.01307964888107,0.311022118130924,-1.166129395,"HH",FALSE,0.678170264909469,FALSE
"140","sod",9,"South of Skunk Island",9,48.02667,-122.75076,0.216283636624523,-0.00134964961823974,0.0578326729098908,0.904979387344619,0.365476307352719,-1.2988892845,"HH",FALSE,0.678170264909469,FALSE
"141","sod",38,"Squaxin Island",13,47.17650485,-122.9046464,-0.0771140729668642,-0.0115193915970818,0.0440013691649321,-0.312705508446888,0.754504410177406,-1.82430749766667,"LH",FALSE,0.900537521824646,FALSE
"142","sod",34,"Suquamish Stormwater Outfall",10,47.7296079,-122.5506191,0.0287157355687059,0.00281445761607505,0.00683631206804491,0.313263829527844,0.75408022794983,-1.8238581805,"HH",FALSE,0.900537521824646,FALSE
"143","sod",46,"Thea Foss Waterway",11,47.259189,-122.434689,0.23324480564102,0.00168755152803324,0.0544949933187168,0.991927861673201,0.321232716681504,-1.21036436066667,"HH",FALSE,0.678170264909469,FALSE
"144","sod",22,"Three Tree Point",11,47.44896,-122.372267,-0.108107826753049,0.00446606928648203,0.0800047085638636,-0.397997114075362,0.690632313045177,-2.5704367685,"HL",FALSE,0.88115157181626,FALSE
"145","sod",67,"Tulalip Bay",8.2,48.0617,-122.2939,0.0139541777915627,-8.22301217546938e-06,2.79413774896418e-05,2.64141229074294,0.00825611811763872,-4.87948046816667,"LL",TRUE,0.455313584074175,FALSE
"146","sod",70,"Tulalip Reservation",8.2,48.0697859,-122.2997764,0.708048950538947,0.00147662423499707,0.0796716736024044,2.50325247208253,0.0123057725425453,-4.5905238305,"LL",TRUE,0.455313584074175,FALSE
"147","sod",73,"West Bay Park",13,47.052362,-122.910912,0.0906570882613036,-0.00517011325680219,0.00663723777937066,1.17623776003841,0.239499879300175,-1.05896160816667,"HH",FALSE,0.678170264909469,FALSE
"148","sod",26,"Williams Olson Park",10,47.66586,-122.56698,-0.190647255194463,0.00207662733144247,0.0450440772929456,-0.908064481228138,0.363844154915791,-1.2993951885,"LH",FALSE,0.678170264909469,FALSE
"149","shell",77,"Aiston Preserve",7,48.6793778,-122.6300583,-0.210063316563449,-0.00323990368525681,0.0178857726071904,-1.54648548380689,0.121987363202358,0.213152042,"HL",FALSE,0.44211296486691,FALSE
"150","shell",13,"Arroyo Beach",11,47.50161,-122.38593,0.537705110160725,-0.00841311127897284,0.0962789924214135,1.76003335700285,0.0784021509703312,0.4864108145,"HH",FALSE,0.44211296486691,FALSE
"151","shell",41,"Blair Waterway",11,47.27568,-122.4173,0.245795748540112,-0.0011648590169243,0.0362563905816334,1.29698633834798,0.194635887471742,0.4535931855,"HH",FALSE,0.453335101018806,FALSE
"152","shell",42,"Blair Waterway Two",11,47.2632444,-122.385731,0.343212041892698,-0.013004558702289,0.0879481783003967,1.20115963894022,0.22968928233788,0.445321253333333,"HH",FALSE,0.49714439858812,FALSE
"153","shell",23,"Brackenwood Lane",10,47.68234,-122.5064,0.56505884778404,-0.000684653765564884,0.175886494406998,1.34897321839738,0.177345568492306,0.234779831833333,"LL",FALSE,0.44211296486691,FALSE
"154","shell",30,"Broad Spit",12,47.78184,-122.83474,0.0259977562126922,-0.00595308652869555,0.213954292802303,0.0690751466085853,0.944929803898268,0.341993286166667,"LH",FALSE,0.953736055865523,FALSE
"155","shell",54,"Browns Point Lighthouse",11,47.30515,-122.44441,0.309953226666003,-0.026740415319123,0.0804263139832762,1.18723265349482,0.235135864197084,0.4424737075,"HH",FALSE,0.49714439858812,FALSE
"156","shell",64,"Cap Sante",7,48.520971,-122.600717,-0.0451637498754653,0.000366887224229032,0.000648440312320218,-1.7880049804836,0.0737752042977805,0.192270736,"HL",FALSE,0.44211296486691,FALSE
"157","shell",56,"Chambers Bay Park",13,47.1905742,-122.5834897,1.5038219254747,-0.0951148010205176,0.779826075356943,1.81064121438641,0.070196408031988,0.489570800333333,"HH",FALSE,0.44211296486691,FALSE
"158","shell",75,"Cherry Point Aquatic Reserve, Conoco Phillips",7,48.8208,-122.7101,-0.574743768880087,-0.00743794129926014,0.105663084755479,-1.7452417837222,0.0809427908050293,0.197256371666667,"HL",FALSE,0.44211296486691,FALSE
"159","shell",8,"Chimacum Creek delta",9,48.04906,-122.7724,-0.749540390102378,-0.0287098695759377,0.189727506160124,-1.6548857548767,0.0979476743659062,0.201196529166667,"HL",FALSE,0.44211296486691,FALSE
"160","shell",74,"Chuckanut, Clark's Point",7,48.68975,-122.50434,-0.0735558305668905,-0.0119823565023165,0.0709743769068778,-0.231122839017212,0.817219372443969,0.369749062666667,"LH",FALSE,0.930372824013134,FALSE
"161","shell",45,"Commencement Bay Skookum",11,47.29,-122.41,-0.119126951591774,0.000682871799734562,0.00638532958873953,-1.49934221320864,0.133784876540612,0.476145049,"LH",FALSE,0.44211296486691,FALSE
"162","shell",48,"Commencement Bay, Dick Gilmur Launch",11,47.292549,-122.412175,0.242257413054434,-0.00568781806430567,0.0367759978732291,1.29292557692621,0.196036800440565,0.453865413333333,"HH",FALSE,0.453335101018806,FALSE
"163","shell",49,"Commencement Bay, Milwaukee Waterway",11,47.2694,-122.4243,0.219864364581425,-0.00236352085923712,0.027358612223692,1.34354284956674,0.179096260871225,0.455551940666667,"HH",FALSE,0.44211296486691,FALSE
"164","shell",21,"Des Moines Marina",11,47.40301418,-122.3305538,0.716644292431582,-0.0711096061092499,0.510517061718267,1.10251734514866,0.270236821994648,0.430124414333333,"HH",FALSE,0.51275704686164,FALSE
"165","shell",12,"Discovery Bay",6,48.064957,-122.857524,-0.107489267418175,0.00465051266054112,0.00571064537338042,-1.483942606119,0.137824147450346,0.230738589833333,"HL",FALSE,0.44211296486691,FALSE
"166","shell",44,"Donkey Creek Delta",11,47.33775,-122.59014,-0.213218680221116,0.00332475087913127,0.025707209206269,-1.35057139730225,0.176832768357311,0.459004789666667,"LH",FALSE,0.44211296486691,FALSE
"167","shell",31,"Eagle Harbor Dr",10,47.61889,-122.5275,-0.991713880795896,-0.0177804674861942,0.159092173330827,-2.44177058877972,0.0146154309063001,0.143857259833333,"HL",TRUE,0.44211296486691,FALSE
"168","shell",60,"Eastsound, Fishing Bay",7,48.69368,-122.90985,-0.303889285354857,-0.172040478629374,1.66207253830527,-0.102270697214022,0.918541813563379,0.363666181333333,"LH",FALSE,0.953736055865523,FALSE
"169","shell",69,"Edmonds Ferry",9,47.81407,-122.3825,0.11030798365335,-0.0117953217335573,0.196872577772291,0.275191367734794,0.783169218588545,0.3264162795,"LL",FALSE,0.930372824013134,FALSE
"170","shell",68,"Edmonds Marina",9,47.8111,-122.388,0.0339276439511745,-0.000216462137463917,0.00286595699532691,0.637794709494792,0.523607323909221,0.292962060333333,"LL",FALSE,0.774938839385647,FALSE
"171","shell",72,"Eld Inlet",13,47.074603,-123.003527,-0.227756221831027,-0.00096760835906021,0.0769156290004284,-0.817737563422636,0.41350705655056,0.417608842666667,"LH",FALSE,0.665207004016118,FALSE
"172","shell",19,"Elliot Bay Myrtle Edwards",10,47.61862,-122.36108,-0.272617619086479,-0.00230101056764097,0.0227717296222332,-1.79132637626977,0.0732409358462703,0.198520125333333,"HL",FALSE,0.44211296486691,FALSE
"173","shell",14,"Elliott Bay, Harbor Island, Pier 17",10,47.58766,-122.35065,-0.159943643168297,-0.00524644855476995,0.0706012321904301,-0.582205491623457,0.560428274775726,0.2950918765,"HL",FALSE,0.782484761007617,FALSE
"174","shell",66,"Everett Harbor",8.2,47.9726,-122.22977,-0.000288367840812811,0.000213271159767466,1.71552315983193e-05,-0.121113624493459,0.903601037832388,0.352809314666667,"LH",FALSE,0.953736055865523,FALSE
"175","shell",63,"Fidalgo Bay Aq Reserve, Weaverling Spit",7,48.482448,-122.583879,0.023055344320687,0.00151642075351309,0.00131589711559297,0.593762858300022,0.552670734166814,0.291934403166667,"LL",FALSE,0.782484761007617,FALSE
"176","shell",59,"Filucy Bay",13,47.19483,-122.748665,0.407808132799862,-0.0241252620899894,0.078630260270369,1.54035891404529,0.12347289047963,0.469973642666667,"HH",FALSE,0.44211296486691,FALSE
"177","shell",61,"Friday Harbor",7,48.5069444,-123.0194444,0.206156522946562,0.00220963882330284,0.0123404256033034,1.83591261306919,0.0663705819522127,0.186922767,"LL",FALSE,0.44211296486691,FALSE
"178","shell",58,"Gig Harbor Boat Launch",11,47.33785,-122.58277,0.348029432632956,0.00200029463155884,0.37707389490446,0.563507158426846,0.573089586988666,0.393086821166667,"HH",FALSE,0.785344989577061,FALSE
"179","shell",29,"Hood Canal Holly",12,47.5706,-122.9717,0.349248371719719,-0.0192286690848006,0.158564422154038,0.925353257755921,0.354782184163899,0.271230266166667,"LL",FALSE,0.590393524380706,FALSE
"180","shell",2,"Jamestown",6,48.024789,-122.998135,0.382696263124381,-0.0757805953815859,0.787672528088909,0.516588305381423,0.6054435810774,0.3100136605,"LL",FALSE,0.807824228609426,FALSE
"181","shell",36,"Kingston Marina",10,47.794695,-122.499858,-0.20305337489539,-0.00252006489492571,0.0188627368353428,-1.46010527337667,0.144261143548985,0.223239086666667,"HL",FALSE,0.44211296486691,FALSE
"182","shell",25,"Kitsap St Boat Launch",10,47.54167,-122.64034,-0.268939677618417,-0.00370139729315309,0.0485841698074209,-1.20334126691841,0.228844285980995,0.243930102333333,"HL",FALSE,0.49714439858812,FALSE
"183","shell",52,"Kopachuck State Park",13,47.30973,-122.68868,0.0114123105138467,0.000855837823581174,0.000231823958601089,0.693329485095352,0.488102803418408,0.409070927,"HH",FALSE,0.744290824889002,FALSE
"184","shell",37,"Lions Park",10,47.5833538,-122.6414587,0.0808755674261286,-0.000741160253886656,0.00780488639415205,0.923838134664105,0.355570597110193,0.269550541833333,"LL",FALSE,0.590393524380706,FALSE
"185","shell",76,"Locust Beach",7,48.77636877,-122.5378679,0.383366394460775,-0.0067104070358651,0.114558510458158,1.15248808419096,0.249120563473599,0.252641620166667,"LL",FALSE,0.500668244532726,FALSE
"186","shell",28,"Madrona Pont",10,47.57995505,-122.6786,-0.105099847669088,-0.00278438884859785,0.00952746272900243,-1.04822044677573,0.294537052197622,0.254275786666667,"HL",FALSE,0.544893546565601,FALSE
"187","shell",33,"Manchester, Stormwater Outfall",10,47.55622,-122.54281,-0.301270136762514,-0.0546939648040828,0.462291734603135,-0.362654475662525,0.716863010866794,0.383130212166667,"LH",FALSE,0.884131046735713,FALSE
"188","shell",51,"Maple Hollow Park",13,47.30008,-122.74566,-0.00160644535058595,-0.00015457556762336,8.16241284223639e-06,-0.508180958591936,0.611326443271998,0.393005760666667,"LH",FALSE,0.807824228609426,FALSE
"189","shell",11,"Maristone Island",9,48.018127,-122.699524,0.307611423430359,-0.0309921799939432,0.0868725097422619,1.14881577732361,0.250631952231452,0.262864617833333,"LL",FALSE,0.500668244532726,FALSE
"190","shell",71,"Meyer's Point, Henderson Inlet",13,47.11795,-122.83359,-0.000634045540685221,7.3212646399583e-06,1.98189394428669e-07,-1.44067584090754,0.149676283233741,0.469089576333333,"LH",FALSE,0.44211296486691,FALSE
"191","shell",20,"Miller Creek",11,47.4436,-122.360316,0.294115185498624,0.00776460882575772,0.0230355451802044,1.8866824711213,0.0592030467316452,0.505427012333333,"HH",FALSE,0.44211296486691,FALSE
"192","shell",55,"Minter Bay",13,47.3539722,-122.69175,0.0176443924456356,-0.0219563417739097,0.244418080809005,0.0801007482916035,0.936157127611161,0.349895154333333,"HH",FALSE,0.953736055865523,FALSE
"193","shell",65,"Mukilteo",8.2,47.94968,-122.30158,0.000314008588814194,0.00372378033888132,0.00345428594261647,-0.0580157840296672,0.953736055865523,0.347221306166667,"HH",FALSE,0.953736055865523,FALSE
"194","shell",62,"N Avenue Park",7,48.52108,-122.61531,-0.344430205479293,-0.000703026499326751,0.0317040226105903,-1.9304416951646,0.0535521329035825,0.179876808333333,"HL",FALSE,0.44211296486691,FALSE
"195","shell",7,"North Camano",8.1,48.255358,-122.507014,0.00443321839917059,-2.01649906988844e-05,0.000371101522483584,0.231176517390285,0.817177672334886,0.327452273333333,"LL",FALSE,0.930372824013134,FALSE
"196","shell",10,"Oak Bay County Park",9,48.02218,-122.728709,-0.0103009987010668,9.09015989287248e-05,5.55300742633203e-05,-1.39453957788601,0.163154726608538,0.236565509333333,"HL",FALSE,0.44211296486691,FALSE
"197","shell",3,"Penn Cove Reference",8.1,48.21423,-122.718972,-0.166033581865453,-0.0387872222442883,0.47518254919443,-0.184592956206237,0.85354831113268,0.366726651333333,"LH",FALSE,0.953736055865523,FALSE
"198","shell",50,"Penrose Point State Park",13,47.2619,-122.7376,0.0748687848177255,-0.00278006254174025,0.0916987844118291,0.256420784206335,0.79762594074465,0.367745536666667,"HH",FALSE,0.930372824013134,FALSE
"199","shell",43,"Point Defiance Ferry",11,47.3062,-122.5145,0.329697164421258,-0.0197750372995381,0.0591776070874484,1.43659362904416,0.150833494933695,0.463185587166667,"HH",FALSE,0.44211296486691,FALSE
"200","shell",1,"Port Angeles Yacht Club",6,48.12823,-123.45715,-0.0196006850811239,-9.01788915027508e-05,0.00228280405588053,-0.408351560278198,0.683015590648902,0.312157487,"HL",FALSE,0.856663622169809,FALSE
"201","shell",47,"Purdy, Burley Lagoon",13,47.386977,-122.6367089,0.310294327601925,-0.0313748768305501,0.197123092674073,0.76955042847787,0.441566619951067,0.406019874333333,"HH",FALSE,0.695232550561254,FALSE
"202","shell",57,"Purdy, Dexters",13,47.38566,-122.627255,0.220368463852645,-0.00505348504860427,0.0604000966156652,0.917228168250224,0.359023089150429,0.422248243,"HH",FALSE,0.590393524380706,FALSE
"203","shell",53,"Raft Island Park",13,47.32598,-122.66724,-0.697916196389266,-0.00497145033702035,0.266177478251991,-1.34311423851564,0.179234985756855,0.463762228333333,"LH",FALSE,0.44211296486691,FALSE
"204","shell",39,"Reach Island",13,47.346537,-122.82236,-0.0125180961790877,-0.000510133846319286,0.000306582710629868,-0.685796851726305,0.492841221885961,0.407700043166667,"LH",FALSE,0.744290824889002,FALSE
"205","shell",32,"Rich Passage",10,47.578117,-122.524833,-0.20229486883365,0.00249111766078588,0.0178694402425534,-1.53195059729898,0.125534626262763,0.2204422125,"HL",FALSE,0.44211296486691,FALSE
"206","shell",27,"Rocky Point",10,47.60255,-122.66992,0.0426139851708677,-0.00979297164786254,0.11442532518749,0.154927268527997,0.876878656016286,0.3361483235,"LH",FALSE,0.953736055865523,FALSE
"207","shell",16,"Salmon Bay, Commodore Park",10,47.6663,-122.4018,0.524673754142237,-0.00722935387278294,0.0644478301327195,2.09521395528822,0.0361519772721547,0.175930400333333,"LL",TRUE,0.44211296486691,FALSE
"208","shell",40,"Salmon Beach",11,47.29464,-122.53053,0.460973347794761,-0.0102875885215211,0.0858086113002229,1.60877757900513,0.107664985166433,0.478971022833333,"HH",FALSE,0.44211296486691,FALSE
"209","shell",17,"Seattle Aquarium, Pier 59",10,47.607,-122.342,-0.149166575289516,-0.00241090267912942,0.0564106183986344,-0.617894695462366,0.536644755886978,0.296134795,"HL",FALSE,0.778661018345812,FALSE
"210","shell",18,"Shilshole Bay",10,47.671678,-122.406663,1.27845087179301,-0.0630883956612038,0.813993598549095,1.48693811663245,0.137031155939778,0.233182303833333,"LL",FALSE,0.44211296486691,FALSE
"211","shell",35,"Silverdale, Dyes Inlet",10,47.6427936,-122.6967068,0.0408447237873546,0.0028046146721322,0.114501908230919,0.112417880195888,0.910492078844977,0.336835359333333,"LH",FALSE,0.953736055865523,FALSE
"212","shell",24,"Skiff Point",10,47.66142,-122.49884,0.772156906184391,-0.090961730667476,0.718822922080801,1.01802756008593,0.30866485884125,0.277880139833333,"LL",FALSE,0.549197338114482,FALSE
"213","shell",15,"Smith Cove, Terminal 91",10,47.63237,-122.37869,0.210110538535512,-0.00954001120683682,0.0207391244671368,1.52523613414164,0.127200210906668,0.223289792,"LL",FALSE,0.44211296486691,FALSE
"214","shell",9,"South of Skunk Island",9,48.02667,-122.75076,-0.0651689571872414,0.00155730992767596,0.00236370222647842,-1.37246237532687,0.169919543888139,0.2332048915,"HL",FALSE,0.44211296486691,FALSE
"215","shell",38,"Squaxin Island",13,47.17650485,-122.9046464,0.0832595062041275,-0.00661623221544354,0.0754295691801774,0.327243973948368,0.743483363766914,0.371659124,"HH",FALSE,0.901930638012322,FALSE
"216","shell",34,"Suquamish Stormwater Outfall",10,47.7296079,-122.5506191,-1.75386489477776,-0.0353422499469068,0.616290932791328,-2.1890837144267,0.0285907559852424,0.164970892833333,"HL",TRUE,0.44211296486691,FALSE
"217","shell",46,"Thea Foss Waterway",11,47.259189,-122.434689,0.448506286378433,-0.0163344904078008,0.168244109957906,1.13327232636706,0.257099909354643,0.433497031166667,"HH",FALSE,0.500668244532726,FALSE
"218","shell",22,"Three Tree Point",11,47.44896,-122.372267,0.139921082860357,0.00391530586064702,0.0180740814589376,1.0116475597211,0.311706597308219,0.433200011833333,"HH",FALSE,0.549197338114482,FALSE
"219","shell",67,"Tulalip Bay",8.2,48.0617,-122.2939,-0.151676507827312,-0.000388603127723649,0.121732601457602,-0.433611464755538,0.66457060797541,0.3102962225,"HL",FALSE,0.847900430865179,FALSE
"220","shell",70,"Tulalip Reservation",8.2,48.0697859,-122.2997764,-0.00346690934001509,-0.000728362008111503,0.000912429695010875,-0.0906610085508361,0.927761953659806,0.336916571666667,"HH",FALSE,0.953736055865523,FALSE
"221","shell",73,"West Bay Park",13,47.052362,-122.910912,-0.00949205226704388,1.98045752407143e-05,3.83567561717653e-05,-1.53583432445178,0.12457901898176,0.469594242166667,"LH",FALSE,0.44211296486691,FALSE
"222","shell",26,"Williams Olson Park",10,47.66586,-122.56698,0.147808699232067,-0.0284672223581193,0.161006293195799,0.439310484477837,0.66043657828932,0.317327613333333,"LL",FALSE,0.847900430865179,FALSE
"223","ci",77,"Aiston Preserve",7,48.6793778,-122.6300583,-0.0165537062488791,-0.00148182329360719,0.00430442173042663,-0.229725975948519,0.818304708777681,0.0136097746666667,"LH",FALSE,0.998274761147984,FALSE
"224","ci",13,"Arroyo Beach",11,47.50161,-122.38593,-0.213539665904035,0.00842184531971256,0.0638437974580914,-0.878452569446216,0.379698166613032,0.0426361363333333,"LH",FALSE,0.998274761147984,FALSE
"225","ci",41,"Blair Waterway",11,47.27568,-122.4173,-0.0817733343734503,-0.00100864877284998,0.00966345805754314,-0.821590149813102,0.411310197275829,-0.0385573645,"HL",FALSE,0.998274761147984,FALSE
"226","ci",42,"Blair Waterway Two",11,47.2632444,-122.385731,0.105586906738787,0.00170329610578593,0.04792049961139,0.474554796294035,0.635104332336626,-0.0232950326666667,"LL",FALSE,0.998274761147984,FALSE
"227","ci",23,"Brackenwood Lane",10,47.68234,-122.5064,0.0614973467589464,0.00215140109069648,0.0286130371224481,0.350839978312308,0.725708402871739,0.019705148,"HH",FALSE,0.998274761147984,FALSE
"228","ci",30,"Broad Spit",12,47.78184,-122.83474,-0.133086223794121,-0.00554291438144224,0.0107211061549443,-1.23179343035816,0.218026258034076,-0.0634600418333333,"HL",FALSE,0.998274761147984,FALSE
"229","ci",54,"Browns Point Lighthouse",11,47.30515,-122.44441,-0.199861924049324,-0.0223551440814112,0.182849634590855,-0.41511449410396,0.678058089487613,-0.0214174603333333,"HL",FALSE,0.998274761147984,FALSE
"230","ci",64,"Cap Sante",7,48.520971,-122.600717,-0.0574172536929511,-0.00456478580171676,0.00945263442487724,-0.5436117558562,0.586708668348958,0.0318861968333333,"LH",FALSE,0.998274761147984,FALSE
"231","ci",56,"Chambers Bay Park",13,47.1905742,-122.5834897,0.598969124091631,-0.0201059620896428,0.128876368959067,1.72447411976992,0.0846222870958751,-0.0786941951666667,"LL",FALSE,0.998274761147984,FALSE
"232","ci",75,"Cherry Point Aquatic Reserve, Conoco Phillips",7,48.8208,-122.7101,0.0030816079857671,-0.003567050146182,0.0278808029854213,0.0398181761667298,0.968238085236899,0.00233597133333334,"HH",FALSE,0.998274761147984,FALSE
"233","ci",8,"Chimacum Creek delta",9,48.04906,-122.7724,-0.0711495077214666,0.00702240621858563,0.0535731144735887,-0.337735955166386,0.735562176901838,0.0170671328333333,"LH",FALSE,0.998274761147984,FALSE
"234","ci",74,"Chuckanut, Clark's Point",7,48.68975,-122.50434,0.0344732411834648,-6.21788799541913e-05,0.00176540875703217,0.821943763424338,0.411108903984873,0.0414241666666667,"HH",FALSE,0.998274761147984,FALSE
"235","ci",45,"Commencement Bay Skookum",11,47.29,-122.41,0.0697668783561567,0.00272647032699595,0.0148459877280975,0.550214587353772,0.582172199434281,-0.027860481,"LL",FALSE,0.998274761147984,FALSE
"236","ci",48,"Commencement Bay, Dick Gilmur Launch",11,47.292549,-122.412175,-0.119752069378738,-0.00314662580137041,0.0188271755678567,-0.849818613405684,0.395425939482871,-0.0405142931666667,"HL",FALSE,0.998274761147984,FALSE
"237","ci",49,"Commencement Bay, Milwaukee Waterway",11,47.2694,-122.4243,-0.315187908554011,-0.00454013242272891,0.0944849645832877,-1.01061769162384,0.312199444942049,-0.0487809693333333,"HL",FALSE,0.998274761147984,FALSE
"238","ci",21,"Des Moines Marina",11,47.40301418,-122.3305538,-0.101782286909704,-0.00351381815278816,0.0411910855941306,-0.484186381246148,0.62825360116671,0.0261057601666667,"LH",FALSE,0.998274761147984,FALSE
"239","ci",12,"Discovery Bay",6,48.064957,-122.857524,0.00191363004578174,0.00176912585747843,0.00446623793711142,0.00216226792838817,0.998274761147984,0.00281200349999996,"HH",FALSE,0.998274761147984,FALSE
"240","ci",44,"Donkey Creek Delta",11,47.33775,-122.59014,0.0338890227821729,-7.73240169214277e-05,0.0226958705117918,0.225463070382397,0.82161905133859,0.0127658568333333,"HH",FALSE,0.998274761147984,FALSE
"241","ci",31,"Eagle Harbor Dr",10,47.61889,-122.5275,-0.619091047088307,-0.122717667008439,1.55685394941978,-0.39781810690668,0.69076426914188,-0.0210300885,"HL",FALSE,0.998274761147984,FALSE
"242","ci",60,"Eastsound, Fishing Bay",7,48.69368,-122.90985,-0.0157761314886459,0.00684059657346903,0.0265274474427651,-0.138861561575848,0.88955954604078,0.006069493,"LH",FALSE,0.998274761147984,FALSE
"243","ci",69,"Edmonds Ferry",9,47.81407,-122.3825,-0.97236316735193,-0.0253503473790297,0.447355620067828,-1.4158896572911,0.156807813591538,-0.0699127175,"HL",FALSE,0.998274761147984,FALSE
"244","ci",68,"Edmonds Marina",9,47.8111,-122.388,-0.0875085128180165,0.000432612192120396,0.0116503514295199,-0.814746501293727,0.415217429672426,-0.0418740133333333,"HL",FALSE,0.998274761147984,FALSE
"245","ci",72,"Eld Inlet",13,47.074603,-123.003527,-0.00877235212195198,-0.00168499687857778,0.00198502721080281,-0.159074647470008,0.873610062247166,-0.00800775,"HL",FALSE,0.998274761147984,FALSE
"246","ci",19,"Elliot Bay Myrtle Edwards",10,47.61862,-122.36108,0.17597347796652,-0.0201869967447416,0.0524739282971595,0.856327152874459,0.391816846195326,0.0400755863333333,"HH",FALSE,0.998274761147984,FALSE
"247","ci",14,"Elliott Bay, Harbor Island, Pier 17",10,47.58766,-122.35065,0.0686874579149107,-0.00235931160846111,0.0118109809566383,0.653734418594693,0.51328292455726,0.0322120186666667,"HH",FALSE,0.998274761147984,FALSE
"248","ci",66,"Everett Harbor",8.2,47.9726,-122.22977,0.0237021595062361,0.00260658985582368,0.0120879159731545,0.191873740069941,0.84784110762518,0.0117658696666667,"HH",FALSE,0.998274761147984,FALSE
"249","ci",63,"Fidalgo Bay Aq Reserve, Weaverling Spit",7,48.482448,-122.583879,0.0790155049294432,0.00247948127492005,0.275012563734273,0.145945136759363,0.883964699061783,0.00903678499999996,"HH",FALSE,0.998274761147984,FALSE
"250","ci",59,"Filucy Bay",13,47.19483,-122.748665,-0.638599897418006,-0.0060640677454523,0.148275629577133,-1.64266968553568,0.100451294133013,-0.0831989823333333,"HL",FALSE,0.998274761147984,FALSE
"251","ci",61,"Friday Harbor",7,48.5069444,-123.0194444,-0.12749132717285,0.00863780869823624,0.0487630229275127,-0.616461242601728,0.537590144120548,0.0311403235,"LH",FALSE,0.998274761147984,FALSE
"252","ci",58,"Gig Harbor Boat Launch",11,47.33785,-122.58277,-0.423484923015937,0.00214369636608847,0.226262935122665,-0.894796164941015,0.370896060796472,0.043984369,"LH",FALSE,0.998274761147984,FALSE
"253","ci",29,"Hood Canal Holly",12,47.5706,-122.9717,-0.143843142805086,0.00175612792769453,0.0130835785608951,-1.27290480675317,0.20305182337186,-0.0572676063333333,"HL",FALSE,0.998274761147984,FALSE
"254","ci",2,"Jamestown",6,48.024789,-122.998135,0.00177515684038263,0.000192740590733825,0.000675397318533639,0.0608893121483008,0.951447361323102,0.00485504466666663,"HH",FALSE,0.998274761147984,FALSE
"255","ci",36,"Kingston Marina",10,47.794695,-122.499858,-0.00164312298598589,-0.0147009721229729,0.125565784411101,0.0368498725119485,0.970604708514257,0.00163631766666667,"LH",FALSE,0.998274761147984,FALSE
"256","ci",25,"Kitsap St Boat Launch",10,47.54167,-122.64034,0.210991704158085,-0.030963653558705,0.0760490308536078,0.87738135554722,0.380279536567757,-0.0345549831666667,"LL",FALSE,0.998274761147984,FALSE
"257","ci",52,"Kopachuck State Park",13,47.30973,-122.68868,0.55484665206634,-0.105251436212087,0.710695701422347,0.78300877776128,0.433621957485801,-0.0300891116666667,"LL",FALSE,0.998274761147984,FALSE
"258","ci",37,"Lions Park",10,47.5833538,-122.6414587,0.033706967097952,-0.0628593728811346,0.855402014914977,0.104409649246395,0.916844265545178,-0.000274214166666669,"LH",FALSE,0.998274761147984,FALSE
"259","ci",76,"Locust Beach",7,48.77636877,-122.5378679,-0.0381154326776748,-0.00247152855621943,0.0149103928343557,-0.291904455522766,0.770359676770117,0.0164514838333333,"LH",FALSE,0.998274761147984,FALSE
"260","ci",28,"Madrona Pont",10,47.57995505,-122.6786,0.174203038309069,0.000249650984090786,0.0461071018829354,0.810119297658356,0.417871614183017,-0.0380654748333333,"LL",FALSE,0.998274761147984,FALSE
"261","ci",33,"Manchester, Stormwater Outfall",10,47.55622,-122.54281,0.00967553945587048,-0.00745562941019692,0.010412363462943,0.167885170575756,0.866673616704764,0.00607695783333334,"HH",FALSE,0.998274761147984,FALSE
"262","ci",51,"Maple Hollow Park",13,47.30008,-122.74566,-0.567609399586456,0.00802307317284835,0.163759043470793,-1.4224684382924,0.1548903076339,-0.0664956738333333,"HL",FALSE,0.998274761147984,FALSE
"263","ci",11,"Maristone Island",9,48.018127,-122.699524,0.00148365336756521,0.00073755709217088,0.000382256457629598,0.0381607987576496,0.969559476173974,0.0051377843333333,"HH",FALSE,0.998274761147984,FALSE
"264","ci",71,"Meyer's Point, Henderson Inlet",13,47.11795,-122.83359,-0.43732846263434,-0.0063093098179941,0.123661726473398,-1.22568512696334,0.220317189274892,-0.0609361556666667,"HL",FALSE,0.998274761147984,FALSE
"265","ci",20,"Miller Creek",11,47.4436,-122.360316,0.0447353778551318,-0.00120652774505252,0.0119171213026255,0.420846117644253,0.673867453201799,0.0220678541666667,"HH",FALSE,0.998274761147984,FALSE
"266","ci",55,"Minter Bay",13,47.3539722,-122.69175,-0.0272844798318141,-0.0217731135962846,0.181388628545158,-0.0129405949199752,0.989675187270349,-0.00178377416666666,"HL",FALSE,0.998274761147984,FALSE
"267","ci",65,"Mukilteo",8.2,47.94968,-122.30158,-0.0575246392335794,-0.00191198972359196,0.0160804946261374,-0.43855481611305,0.660984142810372,0.0235597083333333,"LH",FALSE,0.998274761147984,FALSE
"268","ci",62,"N Avenue Park",7,48.52108,-122.61531,0.0431691958263985,-0.00213077611207363,0.179696941531245,0.106863056143301,0.914897622237492,0.00637913633333334,"HH",FALSE,0.998274761147984,FALSE
"269","ci",7,"North Camano",8.1,48.255358,-122.507014,-0.0328399874054687,-0.00679895874297433,0.0221877705839816,-0.174824100419549,0.861217850568915,0.0121947525,"LH",FALSE,0.998274761147984,FALSE
"270","ci",10,"Oak Bay County Park",9,48.02218,-122.728709,-0.00729768774314539,0.000416214063857643,0.0212674192711147,-0.0528952543501276,0.957815365584814,-0.00105711033333337,"HH",FALSE,0.998274761147984,FALSE
"271","ci",3,"Penn Cove Reference",8.1,48.21423,-122.718972,0.000355705251143029,-0.000351627778247183,2.35515317345622e-05,0.145751945118877,0.884117212909942,-0.00226027833333334,"LL",FALSE,0.998274761147984,FALSE
"272","ci",50,"Penrose Point State Park",13,47.2619,-122.7376,-0.638824046757852,-0.162256288010504,1.66474936340855,-0.369360312448331,0.711859175820738,0.0235007561666667,"LH",FALSE,0.998274761147984,FALSE
"273","ci",43,"Point Defiance Ferry",11,47.3062,-122.5145,0.255399169635242,-0.0177209692597694,0.219548822808816,0.582892098527243,0.559965940106517,0.0281923583333333,"HH",FALSE,0.998274761147984,FALSE
"274","ci",1,"Port Angeles Yacht Club",6,48.12823,-123.45715,-0.0119469104666858,-0.00171067038433119,0.00959717221234406,-0.104488578134622,0.916781631991455,-0.00498084216666666,"HL",FALSE,0.998274761147984,FALSE
"275","ci",47,"Purdy, Burley Lagoon",13,47.386977,-122.6367089,0.0405265363925218,-0.00246945625254794,0.00751129859496027,0.496101415920896,0.619822860295789,-0.0209508423333333,"LL",FALSE,0.998274761147984,FALSE
"276","ci",57,"Purdy, Dexters",13,47.38566,-122.627255,-0.0244203672410116,-0.001071833150205,0.00179018293658623,-0.551837122542285,0.58105995089016,-0.0273765346666667,"HL",FALSE,0.998274761147984,FALSE
"277","ci",53,"Raft Island Park",13,47.32598,-122.66724,-0.135446891303822,-0.0163737676902901,0.0871786661425853,-0.403281812719627,0.686740919709805,-0.0214816713333333,"HL",FALSE,0.998274761147984,FALSE
"278","ci",39,"Reach Island",13,47.346537,-122.82236,0.222500031922015,-0.0039482796391631,0.0323034049864006,1.25992570288089,0.207696165612742,-0.0601919085,"LL",FALSE,0.998274761147984,FALSE
"279","ci",32,"Rich Passage",10,47.578117,-122.524833,0.0472053278852316,-0.0121972356408127,0.0324094691597556,0.329966027725344,0.741425631759274,0.0148181095,"HH",FALSE,0.998274761147984,FALSE
"280","ci",27,"Rocky Point",10,47.60255,-122.66992,0.00422251010482394,0.00106464325354403,0.00318319472166926,0.0559708898295372,0.955364997346574,0.00502557183333334,"HH",FALSE,0.998274761147984,FALSE
"281","ci",16,"Salmon Bay, Commodore Park",10,47.6663,-122.4018,0.127293792872294,0.00736047231851146,0.0176900035449755,0.901728711482358,0.367200997189253,0.047062336,"HH",FALSE,0.998274761147984,FALSE
"282","ci",40,"Salmon Beach",11,47.29464,-122.53053,-0.00399245041755097,9.27800769759256e-05,6.21357568256819e-05,-0.518257706554641,0.604278477183933,-0.023167674,"HL",FALSE,0.998274761147984,FALSE
"283","ci",17,"Seattle Aquarium, Pier 59",10,47.607,-122.342,0.134271250476334,-0.0214652041679064,0.171606309484158,0.375944432789217,0.706958206836298,0.0177065991666667,"HH",FALSE,0.998274761147984,FALSE
"284","ci",18,"Shilshole Bay",10,47.671678,-122.406663,-0.239770576143404,0.0048754833071336,0.0366526059912081,-1.27786741433642,0.201296179356569,0.0631681828333333,"LH",FALSE,0.998274761147984,FALSE
"285","ci",35,"Silverdale, Dyes Inlet",10,47.6427936,-122.6967068,-0.00110624738130657,-0.00257749541724558,0.0189781175380543,0.0106797068073858,0.991478988803731,0.00101448483333334,"HH",FALSE,0.998274761147984,FALSE
"286","ci",24,"Skiff Point",10,47.66142,-122.49884,0.010142790975464,0.000656535409267757,0.00040551016723398,0.471079219527238,0.637584164139297,0.0268574236666667,"HH",FALSE,0.998274761147984,FALSE
"287","ci",15,"Smith Cove, Terminal 91",10,47.63237,-122.37869,0.215923109747651,-0.0151037943218377,0.0997233096432216,0.731584029941879,0.4644224986652,0.0359870546666667,"HH",FALSE,0.998274761147984,FALSE
"288","ci",9,"South of Skunk Island",9,48.02667,-122.75076,0.00193885424926268,-0.00211071100329254,0.0044781968302504,0.0605141325557913,0.951746160326125,0.00284498999999996,"HH",FALSE,0.998274761147984,FALSE
"289","ci",38,"Squaxin Island",13,47.17650485,-122.9046464,-0.0569384439292569,-0.00105894149644914,0.0322039723592579,-0.311385085905066,0.755507890460429,-0.0144361061666667,"HL",FALSE,0.998274761147984,FALSE
"290","ci",34,"Suquamish Stormwater Outfall",10,47.7296079,-122.5506191,-1.09028234391147,-0.0868468633361027,0.933146212895345,-1.03875853283734,0.298917051227331,0.0539682578333333,"LH",FALSE,0.998274761147984,FALSE
"291","ci",46,"Thea Foss Waterway",11,47.259189,-122.434689,-0.891095491511542,-0.10689659037058,1.54537637146271,-0.630825289352265,0.528154765913877,0.0334755548333333,"LH",FALSE,0.998274761147984,FALSE
"292","ci",22,"Three Tree Point",11,47.44896,-122.372267,0.0574047930850528,-0.0167949302988673,0.041342810927322,0.364923881514137,0.715168226974064,0.015707608,"HH",FALSE,0.998274761147984,FALSE
"293","ci",67,"Tulalip Bay",8.2,48.0617,-122.2939,0.0333738008827536,-0.000654276313882046,0.00508992783183738,0.476959602822646,0.633390888201002,0.0234968531666667,"HH",FALSE,0.998274761147984,FALSE
"294","ci",70,"Tulalip Reservation",8.2,48.0697859,-122.2997764,-0.105218319185318,-0.00603806000906249,0.0223115756005777,-0.663987828828939,0.50669810103897,0.0347613476666667,"LH",FALSE,0.998274761147984,FALSE
"295","ci",73,"West Bay Park",13,47.052362,-122.910912,0.06277080341433,0.00111442108355772,0.00542922396866374,0.836775893450924,0.4027185501009,-0.0403696441666667,"LL",FALSE,0.998274761147984,FALSE
"296","ci",26,"Williams Olson Park",10,47.66586,-122.56698,0.0582624087397403,0.00079756818266737,0.0052123679365586,0.795947959546157,0.426062283787417,0.042351549,"HH",FALSE,0.998274761147984,FALSE
"297","ibr_bio",77,"Aiston Preserve",7,48.6793778,-122.6300583,-0.0859201544769551,-0.0521214944349449,0.272903221045034,-0.0646986400607897,0.948413945630012,3.56833540583333,"HH",FALSE,0.948413945630012,FALSE
"298","ibr_bio",13,"Arroyo Beach",11,47.50161,-122.38593,-0.0245310641066195,-0.00219015008989975,0.00330352041013137,-0.388698119840705,0.697499473362837,3.2922328895,"HL",FALSE,0.876151661891864,FALSE
"299","ibr_bio",41,"Blair Waterway",11,47.27568,-122.4173,0.153844415700452,-0.00693172861247942,0.0539382811266852,0.692266089123239,0.488770241783627,3.0759325065,"LL",FALSE,0.794094357091513,FALSE
"300","ibr_bio",42,"Blair Waterway Two",11,47.2632444,-122.385731,0.127645727005351,0.000291278503278366,0.0337707248711029,0.69301706385886,0.488298842972449,3.02003067816667,"LL",FALSE,0.794094357091513,FALSE
"301","ibr_bio",23,"Brackenwood Lane",10,47.68234,-122.5064,0.00220844927027791,9.31841848374748e-05,5.05698205930423e-06,0.940630582058579,0.346894204148867,2.76739931666667,"LL",FALSE,0.794094357091513,FALSE
"302","ibr_bio",30,"Broad Spit",12,47.78184,-122.83474,0.282635522883401,-0.0204358547028528,0.11842205999416,0.880701259165754,0.378479535091757,2.86138361566667,"LL",FALSE,0.794094357091513,FALSE
"303","ibr_bio",54,"Browns Point Lighthouse",11,47.30515,-122.44441,-0.0619958370607228,-0.000697834790730978,0.00271853703192152,-1.1756517488299,0.239734067376297,2.54216337416667,"HL",FALSE,0.760992546683254,FALSE
"304","ibr_bio",64,"Cap Sante",7,48.520971,-122.600717,-0.102142657916704,-0.00539627064013857,0.0738525274725117,-0.356001702624377,0.72183929009804,4.10026109683333,"LH",FALSE,0.890268457787583,FALSE
"305","ibr_bio",56,"Chambers Bay Park",13,47.1905742,-122.5834897,0.0940270747741715,-0.0122844295080993,0.0753570319702937,0.387274026490427,0.698553352048919,3.38995603666667,"LL",FALSE,0.876151661891864,FALSE
"306","ibr_bio",75,"Cherry Point Aquatic Reserve, Conoco Phillips",7,48.8208,-122.7101,-0.0718024095157027,-0.00127099857618931,0.0196466417838744,-0.503197423056806,0.61482547641075,4.25021102016667,"LH",FALSE,0.846236965986456,FALSE
"307","ibr_bio",8,"Chimacum Creek delta",9,48.04906,-122.7724,-0.375578316444966,-0.00661413277526788,0.0442812769775921,-1.75337230242282,0.0795381220991677,1.92568923933333,"HL",FALSE,0.760992546683254,FALSE
"308","ibr_bio",74,"Chuckanut, Clark's Point",7,48.68975,-122.50434,-0.0456482279102144,-0.0128358398354803,0.12779817973149,-0.0917858016380001,0.926868225090374,3.85751399583333,"LH",FALSE,0.939565050091613,FALSE
"309","ibr_bio",45,"Commencement Bay Skookum",11,47.29,-122.41,0.155907005118132,0.0047996525257424,0.0567340310758073,0.634400878448007,0.525819236452489,3.08099041216667,"LL",FALSE,0.794094357091513,FALSE
"310","ibr_bio",48,"Commencement Bay, Dick Gilmur Launch",11,47.292549,-122.412175,0.190165758313076,-0.0269090028501608,0.134181897433342,0.592600982859237,0.553448221189859,3.202886725,"LL",FALSE,0.80304251702058,FALSE
"311","ibr_bio",49,"Commencement Bay, Milwaukee Waterway",11,47.2694,-122.4243,-0.16670995280407,0.00400501691476395,0.0262550937815257,-1.05357345126776,0.292078249400064,2.67951058083333,"HL",FALSE,0.760992546683254,FALSE
"312","ibr_bio",21,"Des Moines Marina",11,47.40301418,-122.3305538,0.026557454713696,0.00427288446248037,0.0127405347306821,0.197428767927719,0.843492019081545,3.49214498833333,"LL",FALSE,0.925736212887187,FALSE
"313","ibr_bio",12,"Discovery Bay",6,48.064957,-122.857524,0.268690635949663,-0.00642726715079765,0.0383129519558672,1.40554917702914,0.159858036694918,2.3269185505,"LL",FALSE,0.760992546683254,FALSE
"314","ibr_bio",44,"Donkey Creek Delta",11,47.33775,-122.59014,0.0842750420860977,0.00331091208362726,0.123981397695434,0.2299399272003,0.818138450038211,3.969297098,"HH",FALSE,0.91730674701254,FALSE
"315","ibr_bio",31,"Eagle Harbor Dr",10,47.61889,-122.5275,0.0286234922528293,-0.0113244274879547,0.130185982200189,0.110716425652459,0.911841220275099,3.6473694455,"LH",FALSE,0.937170143060518,FALSE
"316","ibr_bio",60,"Eastsound, Fishing Bay",7,48.69368,-122.90985,0.193261803886968,-0.00968163498251424,0.0321213662633158,1.13234302814368,0.257490246852296,4.79906853316667,"HH",FALSE,0.760992546683254,FALSE
"317","ibr_bio",69,"Edmonds Ferry",9,47.81407,-122.3825,-1.20496567054466,-0.121319027554135,1.63047046329703,-0.848655093330822,0.39607324102731,2.82213866983333,"HL",FALSE,0.794094357091513,FALSE
"318","ibr_bio",68,"Edmonds Marina",9,47.8111,-122.388,-0.116395542854942,0.000365556941600584,0.0336707980428949,-0.636313990539847,0.524571787902663,4.34528199716667,"LH",FALSE,0.794094357091513,FALSE
"319","ibr_bio",72,"Eld Inlet",13,47.074603,-123.003527,-0.137821136310639,-0.00304039128034137,0.0516160034703557,-0.593247156465042,0.553015757933142,4.33887081933333,"LH",FALSE,0.80304251702058,FALSE
"320","ibr_bio",19,"Elliot Bay Myrtle Edwards",10,47.61862,-122.36108,0.486789387318502,-0.0138315054525403,0.20692624356328,1.1005282203396,0.271102040851488,2.65681485033333,"LL",FALSE,0.760992546683254,FALSE
"321","ibr_bio",14,"Elliott Bay, Harbor Island, Pier 17",10,47.58766,-122.35065,-0.0629267468832737,0.00136957403318856,0.00241904003499795,-1.30726789336478,0.191121744368197,2.41160687466667,"HL",FALSE,0.760992546683254,FALSE
"322","ibr_bio",66,"Everett Harbor",8.2,47.9726,-122.22977,0.891522329843075,-0.0333187316689838,0.52170161667204,1.28043050501382,0.200393771221055,4.9681710885,"HH",FALSE,0.760992546683254,FALSE
"323","ibr_bio",63,"Fidalgo Bay Aq Reserve, Weaverling Spit",7,48.482448,-122.583879,-0.582275906831482,-0.00562142503887407,0.175283431105279,-1.37735293517804,0.168403156495896,5.10326205666667,"LH",FALSE,0.760992546683254,FALSE
"324","ibr_bio",59,"Filucy Bay",13,47.19483,-122.748665,0.0149269142761367,-0.00171442617061398,0.00513580267028229,0.232211723073806,0.816373572900275,3.93624014,"HH",FALSE,0.91730674701254,FALSE
"325","ibr_bio",61,"Friday Harbor",7,48.5069444,-123.0194444,0.259166010414018,-0.0404046363764958,0.277216801162085,0.568970150859475,0.569376396787028,4.22753158533333,"HH",FALSE,0.810266410812309,FALSE
"326","ibr_bio",58,"Gig Harbor Boat Launch",11,47.33785,-122.58277,-0.321622685736242,-0.0265904721519303,0.11922646626833,-0.854443010754098,0.392859573195874,4.661330859,"LH",FALSE,0.794094357091513,FALSE
"327","ibr_bio",29,"Hood Canal Holly",12,47.5706,-122.9717,-2.03896022112793,-0.121668732506335,1.57715057429867,-1.52669247544309,0.126837499372498,2.12231556916667,"HL",FALSE,0.760992546683254,FALSE
"328","ibr_bio",2,"Jamestown",6,48.024789,-122.998135,0.496748485798178,-0.0337705833686,0.191325939821733,1.21286948964669,0.22517972225235,2.56189028083333,"LL",FALSE,0.760992546683254,FALSE
"329","ibr_bio",36,"Kingston Marina",10,47.794695,-122.499858,-0.145314181957753,0.00869586265890222,0.0219193722519038,-1.04024345157898,0.298226808835329,4.66500388933333,"LH",FALSE,0.760992546683254,FALSE
"330","ibr_bio",25,"Kitsap St Boat Launch",10,47.54167,-122.64034,0.208407388650802,-0.0143485644389261,0.0846378440060215,0.765679506438729,0.443867023936698,2.9837552815,"LL",FALSE,0.794094357091513,FALSE
"331","ibr_bio",52,"Kopachuck State Park",13,47.30973,-122.68868,-0.0764529490328016,-7.59873671016348e-05,0.006932566427536,-0.917308373648475,0.358981070695311,4.609213807,"LH",FALSE,0.794094357091513,FALSE
"332","ibr_bio",37,"Lions Park",10,47.5833538,-122.6414587,0.212069294157769,0.00458541124225941,0.0771867659213259,0.746814849188889,0.455175330923862,2.99184467716667,"LL",FALSE,0.794094357091513,FALSE
"333","ibr_bio",76,"Locust Beach",7,48.77636877,-122.5378679,-0.350428329522497,-0.00329522338679257,0.175230887530038,-0.829259974612506,0.406957314327212,4.54282563766667,"LH",FALSE,0.794094357091513,FALSE
"334","ibr_bio",28,"Madrona Pont",10,47.57995505,-122.6786,0.105301904279661,-0.00730591177767908,0.0145859837856732,0.93239658138685,0.351131610873584,2.81888155866667,"LL",FALSE,0.794094357091513,FALSE
"335","ibr_bio",33,"Manchester, Stormwater Outfall",10,47.55622,-122.54281,-0.403678541231699,-0.0108297133615474,0.0878760528477417,-1.32522674200655,0.185095958266929,2.40349672333333,"HL",FALSE,0.760992546683254,FALSE
"336","ibr_bio",51,"Maple Hollow Park",13,47.30008,-122.74566,0.182239261538393,-0.061344953445183,0.622512382891722,0.30872737754271,0.757528916214329,3.94849530633333,"HH",FALSE,0.905373760678592,FALSE
"337","ibr_bio",11,"Maristone Island",9,48.018127,-122.699524,0.268282820471832,-0.00539453686973682,0.0362033981935084,1.43834874610843,0.150335127355478,2.32658025516667,"LL",FALSE,0.760992546683254,FALSE
"338","ibr_bio",71,"Meyer's Point, Henderson Inlet",13,47.11795,-122.83359,0.125937125638048,0.0197611681510433,0.134423862102544,0.289592961148581,0.77212765255618,3.40803699683333,"LL",FALSE,0.906943591891386,FALSE
"339","ibr_bio",20,"Miller Creek",11,47.4436,-122.360316,-0.283036102901397,-0.0408383913062006,0.250966235942521,-0.483462047367907,0.628767701341635,3.164192604,"HL",FALSE,0.846236965986456,FALSE
"340","ibr_bio",55,"Minter Bay",13,47.3539722,-122.69175,-0.198428170396917,-0.00439413290375524,0.00988155291028818,-1.95193486071063,0.0509459387819989,5.78304454866667,"LH",FALSE,0.760992546683254,FALSE
"341","ibr_bio",65,"Mukilteo",8.2,47.94968,-122.30158,-0.0104143063967169,-8.09345889850569e-05,2.7742220509759e-05,-1.96187551219777,0.0497769794381295,5.6925754625,"LH",TRUE,0.760992546683254,FALSE
"342","ibr_bio",62,"N Avenue Park",7,48.52108,-122.61531,-0.637798710954901,-0.0280303019035201,0.775041163358135,-0.692631974154742,0.488540539287572,2.9756506735,"HL",FALSE,0.794094357091513,FALSE
"343","ibr_bio",7,"North Camano",8.1,48.255358,-122.507014,-0.517740422973804,-0.0652363072877087,0.877014638876607,-0.483191306969901,0.628959907152096,3.19786473283333,"HL",FALSE,0.846236965986456,FALSE
"344","ibr_bio",10,"Oak Bay County Park",9,48.02218,-122.728709,0.471229443371979,-0.00117371737407087,0.150712304449713,1.21685390324841,0.22365980690401,2.52871046333333,"LL",FALSE,0.760992546683254,FALSE
"345","ibr_bio",3,"Penn Cove Reference",8.1,48.21423,-122.718972,-0.0732956394808214,-0.0091253514868073,0.132810347277093,-0.176083244635872,0.860228544097692,3.92077216333333,"LH",FALSE,0.925736212887187,FALSE
"346","ibr_bio",50,"Penrose Point State Park",13,47.2619,-122.7376,-0.120355401076467,-0.0030532271503969,0.0122345999233476,-1.0605012254269,0.288916632774651,4.87519192366667,"LH",FALSE,0.760992546683254,FALSE
"347","ibr_bio",43,"Point Defiance Ferry",11,47.3062,-122.5145,0.0468327877400654,-0.0293276936886018,0.195340025477578,0.172319355111323,0.863186468773188,3.616102096,"LH",FALSE,0.925736212887187,FALSE
"348","ibr_bio",1,"Port Angeles Yacht Club",6,48.12823,-123.45715,-0.0647552695326995,-0.00474223574793788,0.0169477377580793,-0.460988099536353,0.644807143114934,3.22219244166667,"HL",FALSE,0.847133914088488,FALSE
"349","ibr_bio",47,"Purdy, Burley Lagoon",13,47.386977,-122.6367089,-0.443681327223904,-0.0213318951766712,0.147886731337758,-1.09826541963452,0.272088607203319,4.89905307566667,"LH",FALSE,0.760992546683254,FALSE
"350","ibr_bio",57,"Purdy, Dexters",13,47.38566,-122.627255,-0.327139513517367,-0.182413053837105,1.11951842198292,-0.136783060336253,0.891202273675502,3.42668299366667,"HL",FALSE,0.928858707774467,FALSE
"351","ibr_bio",53,"Raft Island Park",13,47.32598,-122.66724,0.0680285138806031,-0.0139706565303734,0.0711665706533962,0.307377050749814,0.758556394082063,3.98870421916667,"HH",FALSE,0.905373760678592,FALSE
"352","ibr_bio",39,"Reach Island",13,47.346537,-122.82236,0.0742162747885706,-0.00278957673333023,0.0292494894689427,0.450261260198147,0.652522068960051,4.14058975933333,"HH",FALSE,0.847133914088488,FALSE
"353","ibr_bio",32,"Rich Passage",10,47.578117,-122.524833,0.0350869083662921,0.000449915924934582,0.00280389119210299,0.654123266238426,0.51303239302652,3.058244995,"LL",FALSE,0.794094357091513,FALSE
"354","ibr_bio",27,"Rocky Point",10,47.60255,-122.66992,0.27720553602404,-0.000702276223054895,0.0443866135301606,1.31909097640379,0.187138699524177,2.468950286,"LL",FALSE,0.760992546683254,FALSE
"355","ibr_bio",16,"Salmon Bay, Commodore Park",10,47.6663,-122.4018,0.234946847099513,0.00268678556774164,0.0279577059052751,1.38906884480285,0.164811816457636,2.317755212,"LL",FALSE,0.760992546683254,FALSE
"356","ibr_bio",40,"Salmon Beach",11,47.29464,-122.53053,-0.0110643610851952,-0.00181739760522828,0.00151647084631194,-0.237455432412955,0.812303490287288,3.440272065,"HL",FALSE,0.91730674701254,FALSE
"357","ibr_bio",17,"Seattle Aquarium, Pier 59",10,47.607,-122.342,0.190942037706615,0.00452174450799312,0.02984399980463,1.07910740427754,0.280539850893061,2.63475008866667,"LL",FALSE,0.760992546683254,FALSE
"358","ibr_bio",18,"Shilshole Bay",10,47.671678,-122.406663,0.301731368949222,-0.00221100323271778,0.0502469571101816,1.35592717688261,0.175122339560272,2.374200972,"LL",FALSE,0.760992546683254,FALSE
"359","ibr_bio",35,"Silverdale, Dyes Inlet",10,47.6427936,-122.6967068,0.408954013893537,-0.0157528344335037,0.128371471570194,1.18537292713799,0.23587003095013,2.61756043083333,"LL",FALSE,0.760992546683254,FALSE
"360","ibr_bio",24,"Skiff Point",10,47.66142,-122.49884,0.153129799417871,0.00449205965461573,0.0384023003358137,0.758491071255792,0.448157056232466,2.96710544066667,"LL",FALSE,0.794094357091513,FALSE
"361","ibr_bio",15,"Smith Cove, Terminal 91",10,47.63237,-122.37869,0.410478649946299,-0.0258600234592467,0.131577180100525,1.20291078764535,0.229010845332023,2.55063277416667,"LL",FALSE,0.760992546683254,FALSE
"362","ibr_bio",9,"South of Skunk Island",9,48.02667,-122.75076,0.298256226380554,0.00322109350190277,0.0486763117226254,1.33725707151651,0.18113873843083,2.351970905,"LL",FALSE,0.760992546683254,FALSE
"363","ibr_bio",38,"Squaxin Island",13,47.17650485,-122.9046464,0.033511344062458,-0.005794329961004,0.0650410493813404,0.15412087935264,0.877514425626744,3.857476647,"HH",FALSE,0.92765810709113,FALSE
"364","ibr_bio",34,"Suquamish Stormwater Outfall",10,47.7296079,-122.5506191,0.129135273611529,-0.00494199009407598,0.0284286302226243,0.795201463845955,0.426496320418913,2.94199693366667,"LL",FALSE,0.794094357091513,FALSE
"365","ibr_bio",46,"Thea Foss Waterway",11,47.259189,-122.434689,0.0612169603141503,0.00192882545894749,0.00559508025552868,0.792619272345495,0.427999676754439,2.9145503305,"LL",FALSE,0.794094357091513,FALSE
"366","ibr_bio",22,"Three Tree Point",11,47.44896,-122.372267,-0.205926596654508,0.00137629143757446,0.0600754622091553,-0.845778794377577,0.397676157326451,4.57971505316667,"LH",FALSE,0.794094357091513,FALSE
"367","ibr_bio",67,"Tulalip Bay",8.2,48.0617,-122.2939,0.0879513633859953,-0.000351806039203205,0.00082429572791413,3.07563480771177,0.00210054948049467,6.79486992783333,"HH",TRUE,0.137110400967364,FALSE
"368","ibr_bio",70,"Tulalip Reservation",8.2,48.0697859,-122.2997764,0.650651802357169,-0.00790368434669302,0.0514913538830507,2.90218582694206,0.00370568651263146,6.596512143,"HH",TRUE,0.137110400967364,FALSE
"369","ibr_bio",73,"West Bay Park",13,47.052362,-122.910912,0.0239447883076293,-1.70021378772282e-05,0.00123517621199626,0.681796560902228,0.495367599210485,3.0470775815,"LL",FALSE,0.794094357091513,FALSE
"370","ibr_bio",26,"Williams Olson Park",10,47.66586,-122.56698,-0.186052755959066,0.00540554862557483,0.0308131670231298,-1.09070182490925,0.275404107360701,2.57217967266667,"HL",FALSE,0.760992546683254,FALSE
"371","ibr_morph",77,"Aiston Preserve",7,48.6793778,-122.6300583,0.176056114166434,-0.0067736041499834,0.0207841656920298,1.26817880967443,0.204734102564802,1.17144393283333,"HH",FALSE,0.731406369100174,FALSE
"372","ibr_morph",13,"Arroyo Beach",11,47.50161,-122.38593,0.0422830979076479,-0.000247049185028387,0.0107344795400027,0.410493598142325,0.681443898701008,0.968487969666667,"LL",FALSE,0.920636415539531,FALSE
"373","ibr_morph",41,"Blair Waterway",11,47.27568,-122.4173,-0.465381883053861,-0.00136947561472293,0.122867266452534,-1.32376683229927,0.185580494742371,1.18954026516667,"LH",FALSE,0.731406369100174,FALSE
"374","ibr_morph",42,"Blair Waterway Two",11,47.2632444,-122.385731,0.221299473785287,-0.0418213760083969,0.45286384757798,0.390995210091868,0.695800776401818,1.05789107866667,"HH",FALSE,0.920636415539531,FALSE
"375","ibr_morph",23,"Brackenwood Lane",10,47.68234,-122.5064,0.093972507088027,-0.0202027902027449,0.427799430474555,0.174562940943835,0.861423070239716,1.00068122383333,"LL",FALSE,0.972032599015248,FALSE
"376","ibr_morph",30,"Broad Spit",12,47.78184,-122.83474,0.0200313756478979,-0.00827486175586608,0.173124467235669,0.0680303835990601,0.945761447690512,1.01284882583333,"LL",FALSE,0.972032599015248,FALSE
"377","ibr_morph",54,"Browns Point Lighthouse",11,47.30515,-122.44441,-0.145542020386555,0.00628083264066028,0.0763702260949743,-0.549382865417028,0.582742730420399,1.08764476933333,"LH",FALSE,0.880060450022643,FALSE
"378","ibr_morph",64,"Cap Sante",7,48.520971,-122.600717,-0.00451145446644403,-0.0476950729421537,0.383407971401911,0.0697410467185478,0.944399770743224,1.0180167615,"HH",FALSE,0.972032599015248,FALSE
"379","ibr_morph",56,"Chambers Bay Park",13,47.1905742,-122.5834897,1.70364646137997,-0.0632310659327273,0.62934570553129,2.22721329565531,0.0259330219525928,1.28698973383333,"HH",TRUE,0.731406369100174,FALSE
"380","ibr_morph",75,"Cherry Point Aquatic Reserve, Conoco Phillips",7,48.8208,-122.7101,0.4624174855594,-0.0405956600535849,0.40137638080355,0.793968785399318,0.427213603476827,1.11004301933333,"HH",FALSE,0.841571638477574,FALSE
"381","ibr_morph",8,"Chimacum Creek delta",9,48.04906,-122.7724,-0.719473294211493,-0.00869099323507976,0.111649250197113,-2.12720183807757,0.0334033164849636,0.752824372666667,"HL",TRUE,0.731406369100174,FALSE
"382","ibr_morph",74,"Chuckanut, Clark's Point",7,48.68975,-122.50434,-0.0842377342460258,0.00114437106536834,0.00882992167317998,-0.908632849485427,0.363543960731866,1.13211282433333,"LH",FALSE,0.841571638477574,FALSE
"383","ibr_morph",45,"Commencement Bay Skookum",11,47.29,-122.41,0.180470227553452,0.00899522757431928,0.0494453409682187,0.771148686949796,0.440618805037886,1.11840643133333,"HH",FALSE,0.841571638477574,FALSE
"384","ibr_morph",48,"Commencement Bay, Dick Gilmur Launch",11,47.292549,-122.412175,-0.268383837022568,-0.00915282083308168,0.0453550304480298,-1.21723443789376,0.223515030918684,1.17393581933333,"LH",FALSE,0.731406369100174,FALSE
"385","ibr_morph",49,"Commencement Bay, Milwaukee Waterway",11,47.2694,-122.4243,0.23994910101102,-0.000105057410168372,0.135577775787095,0.651951038065064,0.514432758454145,1.10107332466667,"HH",FALSE,0.841571638477574,FALSE
"386","ibr_morph",21,"Des Moines Marina",11,47.40301418,-122.3305538,-0.393428775010427,-0.0181470580993953,0.102060233990414,-1.1747058377217,0.240112423039863,0.867410564166667,"HL",FALSE,0.731406369100174,FALSE
"387","ibr_morph",12,"Discovery Bay",6,48.064957,-122.857524,0.512614628406349,0.0176656540372367,0.122365553133608,1.41491659340857,0.15709295220315,0.840076571333333,"LL",FALSE,0.731406369100174,FALSE
"388","ibr_morph",44,"Donkey Creek Delta",11,47.33775,-122.59014,-0.601363583083298,-0.00681685305443629,0.332842776244925,-1.03054373388582,0.3027548333962,1.14805093666667,"LH",FALSE,0.789710245107466,FALSE
"389","ibr_morph",31,"Eagle Harbor Dr",10,47.61889,-122.5275,-0.970402510564724,-0.0226726483898924,0.372001261812344,-1.55386168707271,0.120217412314623,0.825344284,"HL",FALSE,0.731406369100174,FALSE
"390","ibr_morph",60,"Eastsound, Fishing Bay",7,48.69368,-122.90985,0.605171412337931,-0.0106402890567945,0.185619047841779,1.42934368301126,0.152905476431833,1.18800867566667,"HH",FALSE,0.731406369100174,FALSE
"391","ibr_morph",69,"Edmonds Ferry",9,47.81407,-122.3825,0.00440691578239943,0.000429525076962408,0.00288480461823401,0.0740525558241997,0.940968566519657,1.02891360483333,"HH",FALSE,0.972032599015248,FALSE
"392","ibr_morph",68,"Edmonds Marina",9,47.8111,-122.388,-0.00372228226832105,-7.67939245682444e-05,0.000594613027340147,-0.149499074464068,0.881159839631647,1.0387531845,"LH",FALSE,0.972032599015248,FALSE
"393","ibr_morph",72,"Eld Inlet",13,47.074603,-123.003527,-0.0277257664542144,0.00876175753582174,0.0300982354376606,-0.210316756761144,0.833420457755184,1.03841104933333,"LH",FALSE,0.972032599015248,FALSE
"394","ibr_morph",19,"Elliot Bay Myrtle Edwards",10,47.61862,-122.36108,-0.00966423767861701,6.31698221685179e-05,7.01482258813686e-05,-1.16141856500831,0.245471722735844,0.868865161166667,"HL",FALSE,0.731406369100174,FALSE
"395","ibr_morph",14,"Elliott Bay, Harbor Island, Pier 17",10,47.58766,-122.35065,-0.152624718758919,-0.000430231756204118,0.0293580501284284,-0.888250206777862,0.374406177445977,0.905138897333333,"HL",FALSE,0.841571638477574,FALSE
"396","ibr_morph",66,"Everett Harbor",8.2,47.9726,-122.22977,0.0486602843181023,-0.0166487981703533,0.318276511101477,0.115763403864179,0.907840054946829,1.02974487333333,"HH",FALSE,0.972032599015248,FALSE
"397","ibr_morph",63,"Fidalgo Bay Aq Reserve, Weaverling Spit",7,48.482448,-122.583879,0.0691937605505176,-0.00278331086607524,0.0107471129893439,0.694301757828599,0.487492988850756,0.935594247833333,"LL",FALSE,0.841571638477574,FALSE
"398","ibr_morph",59,"Filucy Bay",13,47.19483,-122.748665,0.596408365116402,-0.0610135338212936,0.285967898293444,1.22937824809065,0.218930021844719,1.15634567083333,"HH",FALSE,0.731406369100174,FALSE
"399","ibr_morph",61,"Friday Harbor",7,48.5069444,-123.0194444,0.068690013706649,-0.0145862838670505,0.114497776754422,0.246106385131861,0.805599880448423,1.04399878783333,"HH",FALSE,0.96152243795457,FALSE
"400","ibr_morph",58,"Gig Harbor Boat Launch",11,47.33785,-122.58277,-0.0475569691493071,-0.0377996890338855,0.277434815970825,-0.0185245766919525,0.985220371562989,1.00783780216667,"HL",FALSE,0.986944172791369,FALSE
"401","ibr_morph",29,"Hood Canal Holly",12,47.5706,-122.9717,0.298787226885765,-0.055303634270778,0.606300851309013,0.454747823405853,0.649290671233613,0.971920751833333,"LL",FALSE,0.918055216275454,FALSE
"402","ibr_morph",2,"Jamestown",6,48.024789,-122.998135,0.559368717092656,-0.00815826256553111,0.156834463058635,1.43306457859112,0.151839382959841,0.8457880105,"LL",FALSE,0.731406369100174,FALSE
"403","ibr_morph",36,"Kingston Marina",10,47.794695,-122.499858,0.0381579503846759,0.000699680418510644,0.00325683389558507,0.656371794988339,0.511584933488068,0.9333692435,"LL",FALSE,0.841571638477574,FALSE
"404","ibr_morph",25,"Kitsap St Boat Launch",10,47.54167,-122.64034,0.0305135041364555,-0.00121691896956491,0.00187384566894668,0.733008403438934,0.463553304028044,0.929214076,"LL",FALSE,0.841571638477574,FALSE
"405","ibr_morph",52,"Kopachuck State Park",13,47.30973,-122.68868,-0.0890640980453181,-0.00758606222814849,0.209989910629858,-0.177803922078169,0.858876967059514,0.9947529685,"HL",FALSE,0.972032599015248,FALSE
"406","ibr_morph",37,"Lions Park",10,47.5833538,-122.6414587,-0.734841572539357,-0.0344321234207252,0.334235124783274,-1.21150706878892,0.225701127158138,0.854061843333333,"HL",FALSE,0.731406369100174,FALSE
"407","ibr_morph",76,"Locust Beach",7,48.77636877,-122.5378679,-0.720293539086955,0.00197761666568655,0.175583091084612,-1.72368906407897,0.0847639902902048,1.24045094683333,"LH",FALSE,0.731406369100174,FALSE
"408","ibr_morph",28,"Madrona Pont",10,47.57995505,-122.6786,-0.420403999197455,-0.0169007479330096,0.133279703205432,-1.1052614685047,0.269046308802153,0.877363356,"HL",FALSE,0.737386179679974,FALSE
"409","ibr_morph",33,"Manchester, Stormwater Outfall",10,47.55622,-122.54281,-1.14869860480039,-0.0816785532095215,0.763371212954899,-1.22125032295884,0.221991256014149,1.17666505783333,"LH",FALSE,0.731406369100174,FALSE
"410","ibr_morph",51,"Maple Hollow Park",13,47.30008,-122.74566,-0.325945092497538,-0.020562199899347,0.0676298017534843,-1.17429076984611,0.24027857911857,1.175146938,"LH",FALSE,0.731406369100174,FALSE
"411","ibr_morph",11,"Maristone Island",9,48.018127,-122.699524,0.515644022969404,-0.00803520479810874,0.137619105203325,1.4116465876728,0.158054047609832,0.840431800833333,"LL",FALSE,0.731406369100174,FALSE
"412","ibr_morph",71,"Meyer's Point, Henderson Inlet",13,47.11795,-122.83359,-0.126146090160378,0.00183105134091326,0.012225746428495,-1.15742994322904,0.247096746317626,1.1621556555,"LH",FALSE,0.731406369100174,FALSE
"413","ibr_morph",20,"Miller Creek",11,47.4436,-122.360316,0.221520636613503,0.00608529313089854,0.189383750206123,0.4950460474141,0.620567616730049,0.954870465,"LL",FALSE,0.900431443882816,FALSE
"414","ibr_morph",55,"Minter Bay",13,47.3539722,-122.69175,-0.099854870978879,-0.0106901317969298,0.0835590759888516,-0.308458206524136,0.757733697154517,0.975448237833333,"HL",FALSE,0.934538226490571,FALSE
"415","ibr_morph",65,"Mukilteo",8.2,47.94968,-122.30158,0.102283245895771,0.000952030427293906,0.0776215450007594,0.363707377666623,0.716076533567782,1.06626748633333,"HH",FALSE,0.920636415539531,FALSE
"416","ibr_morph",62,"N Avenue Park",7,48.52108,-122.61531,0.00277605665784309,4.05739267436474e-05,1.89122567810505e-05,0.629016879122137,0.529338005883037,1.09647380983333,"HH",FALSE,0.841571638477574,FALSE
"417","ibr_morph",7,"North Camano",8.1,48.255358,-122.507014,0.519386000110248,0.00784991022328826,0.190009990301828,1.17351342305013,0.240589977221873,0.867409180166667,"LL",FALSE,0.731406369100174,FALSE
"418","ibr_morph",10,"Oak Bay County Park",9,48.02218,-122.728709,0.0721029913406395,-0.00213143093906398,0.00160970708457945,1.85025635828046,0.0642766094974485,0.8003450185,"LL",FALSE,0.731406369100174,FALSE
"419","ibr_morph",3,"Penn Cove Reference",8.1,48.21423,-122.718972,0.820825679373478,-0.0867422099148259,0.817451860064447,1.00380193493798,0.315474091567932,0.9077080545,"LL",FALSE,0.789710245107466,FALSE
"420","ibr_morph",50,"Penrose Point State Park",13,47.2619,-122.7376,0.175357136239083,0.00782896940616641,0.0525411608811642,0.730866412794704,0.464860753116535,1.11339866066667,"HH",FALSE,0.841571638477574,FALSE
"421","ibr_morph",43,"Point Defiance Ferry",11,47.3062,-122.5145,-0.00886270012844276,-4.93252678469755e-05,0.000746633012524639,-0.322543762862345,0.747040789699831,1.05957458566667,"LH",FALSE,0.934538226490571,FALSE
"422","ibr_morph",1,"Port Angeles Yacht Club",6,48.12823,-123.45715,-0.0264572193957537,-0.0143221062721343,0.0268212474860463,-0.0740976342763529,0.940932697662137,0.998938339833333,"HL",FALSE,0.972032599015248,FALSE
"423","ibr_morph",47,"Purdy, Burley Lagoon",13,47.386977,-122.6367089,0.136127615585591,-0.0172846702654161,0.119746619006082,0.44333141898046,0.657526033278365,1.06751835266667,"HH",FALSE,0.918055216275454,FALSE
"424","ibr_morph",57,"Purdy, Dexters",13,47.38566,-122.627255,0.0590466000112072,-0.00683077229270736,0.00919565748133404,0.686981235417205,0.492094553257871,1.099976434,"HH",FALSE,0.841571638477574,FALSE
"425","ibr_morph",53,"Raft Island Park",13,47.32598,-122.66724,-0.322327575106878,-0.00797195803514548,0.156320757606221,-0.795083790225692,0.426564763167634,1.1181658185,"LH",FALSE,0.841571638477574,FALSE
"426","ibr_morph",39,"Reach Island",13,47.346537,-122.82236,0.0866328755072743,-0.001759295960863,0.017945266226419,0.659840320473269,0.509356305502708,1.10203727983333,"HH",FALSE,0.841571638477574,FALSE
"427","ibr_morph",32,"Rich Passage",10,47.578117,-122.524833,-0.0490733868710805,-0.00404119815562585,0.013789725150562,-0.383482235642386,0.701362239309009,0.965022775833333,"HL",FALSE,0.920636415539531,FALSE
"428","ibr_morph",27,"Rocky Point",10,47.60255,-122.66992,-0.340787979186687,-0.0256640456158047,0.139288979499138,-0.844350977889666,0.398473307366394,1.13481863433333,"LH",FALSE,0.841571638477574,FALSE
"429","ibr_morph",16,"Salmon Bay, Commodore Park",10,47.6663,-122.4018,0.957000449928128,-0.0719132630682943,0.54230298240979,1.39719801175679,0.162354034460656,0.8664167835,"LL",FALSE,0.731406369100174,FALSE
"430","ibr_morph",40,"Salmon Beach",11,47.29464,-122.53053,0.277184654628221,-0.0374121109547003,0.241546426680964,0.640109016555362,0.522101727521661,1.0902357905,"HH",FALSE,0.841571638477574,FALSE
"431","ibr_morph",17,"Seattle Aquarium, Pier 59",10,47.607,-122.342,0.0364547281604963,0.00144179236477942,0.00269708045550163,0.674188866666242,0.500191246876331,0.932781488,"LL",FALSE,0.841571638477574,FALSE
"432","ibr_morph",18,"Shilshole Bay",10,47.671678,-122.406663,-0.171750498714262,0.00303595758535424,0.00635612059959626,-2.19235920880645,0.0283535795831518,0.757812948,"HL",TRUE,0.731406369100174,FALSE
"433","ibr_morph",35,"Silverdale, Dyes Inlet",10,47.6427936,-122.6967068,-0.499781650362283,-0.0254783384826874,0.227621764808364,-0.994143927499586,0.320152802070594,1.148960528,"LH",FALSE,0.789710245107466,FALSE
"434","ibr_morph",24,"Skiff Point",10,47.66142,-122.49884,0.131000475832902,-0.00220236373379364,0.287910401038324,0.248247455549854,0.803942951012088,0.989349380666667,"LL",FALSE,0.96152243795457,FALSE
"435","ibr_morph",15,"Smith Cove, Terminal 91",10,47.63237,-122.37869,0.0636443329668493,-0.000300151792741003,0.00333913854842237,1.10658778683328,0.268472190066534,0.876893667833333,"LL",FALSE,0.737386179679974,FALSE
"436","ibr_morph",9,"South of Skunk Island",9,48.02667,-122.75076,0.0634869364972189,-0.00076175863228418,0.00129521010432147,1.78523009637135,0.0742240021193394,0.799714451666667,"LL",FALSE,0.731406369100174,FALSE
"437","ibr_morph",38,"Squaxin Island",13,47.17650485,-122.9046464,4.96574190984507e-05,0.000370381012602223,0.000384144297608484,-0.0163637830832235,0.986944172791369,1.01859416283333,"LH",FALSE,0.986944172791369,FALSE
"438","ibr_morph",34,"Suquamish Stormwater Outfall",10,47.7296079,-122.5506191,-0.386718725104429,-0.019886638411516,0.348790439059149,-0.621133610793255,0.534511716330351,0.937156395666667,"HL",FALSE,0.841571638477574,FALSE
"439","ibr_morph",46,"Thea Foss Waterway",11,47.259189,-122.434689,0.260156557413663,-0.0313313376441402,0.278702742232327,0.55214088001131,0.580851835580459,1.07898762566667,"HH",FALSE,0.880060450022643,FALSE
"440","ibr_morph",22,"Three Tree Point",11,47.44896,-122.372267,0.510457670555581,-0.0167323547655784,0.181784325243395,1.23648533063856,0.216278215168854,0.866059217,"LL",FALSE,0.731406369100174,FALSE
"441","ibr_morph",67,"Tulalip Bay",8.2,48.0617,-122.2939,0.0182702049315792,0.00382979564885762,0.0124841895467934,0.129240707143887,0.897167186650643,1.03946064183333,"HH",FALSE,0.972032599015248,FALSE
"442","ibr_morph",70,"Tulalip Reservation",8.2,48.0697859,-122.2997764,-0.147978398393521,-0.0160781957190618,0.0703259587079345,-0.497379214591737,0.618921660291169,1.0872865225,"LH",FALSE,0.900431443882816,FALSE
"443","ibr_morph",73,"West Bay Park",13,47.052362,-122.910912,-0.288786703629555,-0.0216169876256972,0.0490439254302331,-1.20640913515659,0.227659775450393,1.17697896533333,"LH",FALSE,0.731406369100174,FALSE
"444","ibr_morph",26,"Williams Olson Park",10,47.66586,-122.56698,0.0372990115171224,-0.00139871474298803,0.0117929377543749,0.356348097961748,0.721579893260714,0.9754417055,"LL",FALSE,0.920636415539531,FALSE
"445","ibr_combined",77,"Aiston Preserve",7,48.6793778,-122.6300583,-0.0031099962958027,-0.0359921597679678,0.297934228048164,0.0602421113047756,0.951962806627784,4.7397793385,"HH",FALSE,0.978406217923,FALSE
"446","ibr_combined",13,"Arroyo Beach",11,47.50161,-122.38593,-0.0211742621207637,0.00110407033889201,0.00175690856581519,-0.531505913127406,0.595068244795511,4.26072085916667,"HL",FALSE,0.810041825505796,FALSE
"447","ibr_combined",41,"Blair Waterway",11,47.27568,-122.4173,0.134895597455098,0.00801088996397873,0.0797804690845425,0.449221972098919,0.653271538809048,4.26547277183333,"LL",FALSE,0.828990748669991,FALSE
"448","ibr_combined",42,"Blair Waterway Two",11,47.2632444,-122.385731,0.0617850828023167,0.00137420281693199,0.00824041940385225,0.66548842173654,0.505738146634382,4.077921757,"LL",FALSE,0.80355767898425,FALSE
"449","ibr_combined",23,"Brackenwood Lane",10,47.68234,-122.5064,0.0815963354477939,-0.00284811213310186,0.00670784438593082,1.03104972205547,0.302517503535751,3.76808054033333,"LL",FALSE,0.790275501068919,FALSE
"450","ibr_combined",30,"Broad Spit",12,47.78184,-122.83474,0.331950515452302,-0.0242875481301244,0.144820224347823,0.936107475581132,0.349217854461882,3.8742324415,"LL",FALSE,0.790275501068919,FALSE
"451","ibr_combined",54,"Browns Point Lighthouse",11,47.30515,-122.44441,-0.0216117844515374,0.000312134894763913,0.000370447279929266,-1.1390820039067,0.254668952737308,3.62980814366667,"HL",FALSE,0.724827019329261,FALSE
"452","ibr_combined",64,"Cap Sante",7,48.520971,-122.600717,-0.0729839439080596,-0.00696931634774199,0.0363916308747973,-0.346050449790128,0.729304800734881,5.11827785816667,"LH",FALSE,0.850668230178457,FALSE
"453","ibr_combined",56,"Chambers Bay Park",13,47.1905742,-122.5834897,0.0123946493383047,0.00504716198309114,0.0295940619299822,0.0427106871076469,0.965932160265021,4.67694577066667,"LH",FALSE,0.979164107665912,FALSE
"454","ibr_combined",75,"Cherry Point Aquatic Reserve, Conoco Phillips",7,48.8208,-122.7101,-0.0357452917495621,0.00128377736209955,0.00326197771282222,-0.648339228039157,0.516765567231598,5.36025403933333,"LH",FALSE,0.80355767898425,FALSE
"455","ibr_combined",8,"Chimacum Creek delta",9,48.04906,-122.7724,-0.52212550827177,0.0022932598987088,0.0644673751649934,-2.0654193055521,0.0388833434674381,2.67851361216667,"HL",TRUE,0.719341854147605,FALSE
"456","ibr_combined",74,"Chuckanut, Clark's Point",7,48.68975,-122.50434,-0.0885132809987192,-0.0194090193500002,0.131651456821302,-0.190454832388665,0.848952733850959,4.98962682,"LH",FALSE,0.91047104789813,FALSE
"457","ibr_combined",45,"Commencement Bay Skookum",11,47.29,-122.41,0.117208081684655,0.00860301527540467,0.0450470523413486,0.511701743142827,0.608859765970238,4.19939684366667,"LL",FALSE,0.810041825505796,FALSE
"458","ibr_combined",48,"Commencement Bay, Dick Gilmur Launch",11,47.292549,-122.412175,0.144839084041755,-0.00882887075991106,0.153144340717667,0.392674622516733,0.694559816453236,4.3768225445,"LL",FALSE,0.828990748669991,FALSE
"459","ibr_combined",49,"Commencement Bay, Milwaukee Waterway",11,47.2694,-122.4243,-0.199077627508825,-0.00820066932555654,0.0460570430386617,-0.889417109314906,0.373778953208272,3.78058390566667,"HL",FALSE,0.790275501068919,FALSE
"460","ibr_combined",21,"Des Moines Marina",11,47.40301418,-122.3305538,0.0282692041562351,-0.00174387337990495,0.00573493795001601,0.396320163601217,0.691868854095774,4.35955555233333,"LL",FALSE,0.828990748669991,FALSE
"461","ibr_combined",12,"Discovery Bay",6,48.064957,-122.857524,0.376409857463386,-0.000599468475765938,0.0564460700427646,1.58684766871668,0.112547149570662,3.166995122,"LL",FALSE,0.724827019329261,FALSE
"462","ibr_combined",44,"Donkey Creek Delta",11,47.33775,-122.59014,0.10269907402331,0.005302021593954,0.0832630012860597,0.337535754180356,0.735713063938125,5.11734803416667,"HH",FALSE,0.850668230178457,FALSE
"463","ibr_combined",31,"Eagle Harbor Dr",10,47.61889,-122.5275,0.0779376577751707,0.00900403303623054,0.0806220628434515,0.242775111681405,0.808179616843585,4.4727137295,"LL",FALSE,0.906140782521595,FALSE
"464","ibr_combined",60,"Eastsound, Fishing Bay",7,48.69368,-122.90985,0.295294017430257,-0.000224233962066986,0.0550488372691485,1.25953497967903,0.207837163903832,5.98707720866667,"HH",FALSE,0.724827019329261,FALSE
"465","ibr_combined",69,"Edmonds Ferry",9,47.81407,-122.3825,-1.20624503605375,-0.180404820783998,1.46042182325564,-0.848868784177748,0.395954310375841,3.85105227466667,"HL",FALSE,0.791908620751683,FALSE
"466","ibr_combined",68,"Edmonds Marina",9,47.8111,-122.388,-0.122861431775039,-0.00133204265857532,0.0380494648200178,-0.623027244666597,0.533266618389878,5.38403518133333,"LH",FALSE,0.80355767898425,FALSE
"467","ibr_combined",72,"Eld Inlet",13,47.074603,-123.003527,-0.157363490346791,-0.00205599048172965,0.0618632192337719,-0.624419087778319,0.532352392731995,5.37728186883333,"LH",FALSE,0.80355767898425,FALSE
"468","ibr_combined",19,"Elliot Bay Myrtle Edwards",10,47.61862,-122.36108,0.557758109573943,-0.0407622739535381,0.226108330900167,1.25869545352828,0.208140354223678,3.5256800115,"LL",FALSE,0.724827019329261,FALSE
"469","ibr_combined",14,"Elliott Bay, Harbor Island, Pier 17",10,47.58766,-122.35065,-0.0990341031745631,-0.000786750166682475,0.00463628057954849,-1.44289923440245,0.14904885887071,3.316745772,"HL",FALSE,0.724827019329261,FALSE
"470","ibr_combined",66,"Everett Harbor",8.2,47.9726,-122.22977,0.994247476330503,-0.0760810410402482,0.592717344188667,1.39025120068539,0.16445261066963,5.9979159615,"HH",FALSE,0.724827019329261,FALSE
"471","ibr_combined",63,"Fidalgo Bay Aq Reserve, Weaverling Spit",7,48.482448,-122.583879,-0.567818738576515,-0.00782031045752374,0.181280806462512,-1.31525782929111,0.188423265706137,6.03885630483333,"LH",FALSE,0.724827019329261,FALSE
"472","ibr_combined",59,"Filucy Bay",13,47.19483,-122.748665,0.0486115775178494,-0.00596684191164173,0.0180015022857511,0.406786544916129,0.684164769834523,5.09258581133333,"HH",FALSE,0.828990748669991,FALSE
"473","ibr_combined",61,"Friday Harbor",7,48.5069444,-123.0194444,0.296750436192065,-0.0219110333641367,0.293314355869195,0.5883867644937,0.556272719589177,5.271530373,"HH",FALSE,0.807140808815669,FALSE
"474","ibr_combined",58,"Gig Harbor Boat Launch",11,47.33785,-122.58277,-0.257566837741398,-0.00998061863747331,0.0826482958476637,-0.861210896648662,0.389121899675045,5.66916866083333,"LH",FALSE,0.791908620751683,FALSE
"475","ibr_combined",29,"Hood Canal Holly",12,47.5706,-122.9717,-1.94816320807144,-0.166736570724339,1.24274326790607,-1.59800168294871,0.110042602548976,3.094236321,"HL",FALSE,0.724827019329261,FALSE
"476","ibr_combined",2,"Jamestown",6,48.024789,-122.998135,0.642686871121028,-0.0281652835790534,0.229658045858707,1.39986445587531,0.161553911675358,3.4076782915,"LL",FALSE,0.724827019329261,FALSE
"477","ibr_combined",36,"Kingston Marina",10,47.794695,-122.499858,-0.138995541051122,1.58042847681798e-05,0.0283233777049946,-0.825995582078654,0.408806597942657,5.5983731325,"LH",FALSE,0.79609705915149,FALSE
"478","ibr_combined",25,"Kitsap St Boat Launch",10,47.54167,-122.64034,0.239686424202424,-0.0231148170393192,0.0839222135508718,0.907170558145823,0.364316610430747,3.9129693575,"LL",FALSE,0.790275501068919,FALSE
"479","ibr_combined",52,"Kopachuck State Park",13,47.30973,-122.68868,-0.0250297096330331,-0.00224904356873062,0.000977309707038309,-0.728702587612098,0.466183609626457,5.60396677533333,"LH",FALSE,0.80355767898425,FALSE
"480","ibr_combined",37,"Lions Park",10,47.5833538,-122.6414587,0.198358576178117,-0.00291629387020648,0.0486925093125728,0.912133648136553,0.361698367319361,3.8459065205,"LL",FALSE,0.790275501068919,FALSE
"481","ibr_combined",76,"Locust Beach",7,48.77636877,-122.5378679,-0.501805024311915,-0.0393429681182522,0.239151691518401,-0.945669489204487,0.344317189134186,5.78327658433333,"LH",FALSE,0.790275501068919,FALSE
"482","ibr_combined",28,"Madrona Pont",10,47.57995505,-122.6786,0.0735180505569821,5.86210194033887e-05,0.00462718489808125,1.07991388337998,0.280180530294353,3.6962449145,"LL",FALSE,0.767902194140078,FALSE
